name,type,country,city,details,coordinates,latitude,longitude,searches_within_500m,conversions_within_500m,conversion_rate,stashpoints_within_500m
King's Cross Station,Train Station,United Kingdom,London,"A major railway and underground station, serving as a hub for national and international travel.","51.53068649999999, -0.1233551",51.5306865,-0.1233551,5328,512,0.0960960961,19
St Pancras International,Train Station,United Kingdom,London,,"51.5311162, -0.1258659",51.5311162,-0.1258659,5272,510,0.09673748103,17
London King's Cross,Train Station,United Kingdom,London,,"51.53160339999999, -0.1235978",51.5316034,-0.1235978,5239,495,0.09448368009,16
National Gallery,Museum,United Kingdom,London,"One of the world's most prestigious art museums, housing a collection of over 2,300 paintings from the 13th to 19th centuries.","51.50892899999999, -0.128299",51.508929,-0.128299,3040,270,0.08881578947,7
Charing Cross,Train Station,United Kingdom,London,,"51.512427, -0.128646",51.512427,-0.128646,2768,303,0.1094653179,15
Trafalgar Square,City Center,United Kingdom,London,"A vibrant public square and popular meeting place, surrounded by historic buildings and famous landmarks.","51.508039, -0.128069",51.508039,-0.128069,2608,231,0.08857361963,6
London Victoria,Train Station,United Kingdom,London,,"51.49554149999999, -0.1435602",51.4955415,-0.1435602,2577,196,0.07605743112,13
Victoria Coach Station,Bus Station,United Kingdom,London,"The largest and busiest bus station in London, serving national and international routes.","51.4925005, -0.1481615",51.4925005,-0.1481615,2376,177,0.07449494949,9
Edinburgh Waverley,Train Station,United Kingdom,Edinburgh,,"55.9524097, -3.1883014",55.9524097,-3.1883014,2287,176,0.07695671185,14
Wembley Stadium,Stadium,United Kingdom,London,,"51.55602469999999, -0.2796177",51.5560247,-0.2796177,2141,342,0.15973844,2
Covent Garden,City Center,United Kingdom,London,"A bustling shopping and entertainment district, known for its street performers, markets, and restaurants.","51.5116571, -0.1240436",51.5116571,-0.1240436,2063,217,0.1051866214,12
Piccadilly Circus,City Center,United Kingdom,London,"An iconic intersection and popular gathering spot, surrounded by shops, restaurants, and theatres.","51.5098597, -0.1342809",51.5098597,-0.1342809,1962,212,0.1080530071,8
London Euston,Train Station,United Kingdom,London,,"51.5280408, -0.1333271",51.5280408,-0.1333271,1755,217,0.1236467236,15
Paddington Station,Train Station,United Kingdom,London,"A major railway and underground station, serving as a hub for national and international travel.","51.5166744, -0.1769328",51.5166744,-0.1769328,1641,169,0.1029859842,21
Royal Opera House,Theatre,United Kingdom,London,,"51.5129211, -0.1221976",51.5129211,-0.1221976,1401,143,0.10206995,15
Victoria Palace Theatre,Theatre,United Kingdom,London,,"51.4966569, -0.14258",51.4966569,-0.14258,1310,116,0.08854961832,11
London Liverpool Street,Train Station,United Kingdom,London,,"51.5174665, -0.0826359",51.5174665,-0.0826359,1184,126,0.1064189189,7
Amsterdam Centraal Station,,Netherlands,Amsterdam,,"52.3791283, 4.900272",52.3791283,4.900272,1160,75,0.06465517241,5
Amsterdam Centraal Station,Train Station,Netherlands,Amsterdam,"The largest and busiest train station in Amsterdam, serving both domestic and international routes.","52.3791283, 4.900272",52.3791283,4.900272,1160,75,0.06465517241,5
Amsterdam Centraal Bus Station,Bus Station,Netherlands,Amsterdam,"The largest and busiest bus station in Amsterdam, serving both national and international routes.","52.37963999999999, 4.90076",52.37964,4.90076,1155,75,0.06493506494,4
Liverpool Central Station,Train Station,United Kingdom,Liverpool,,"53.4046466, -2.9800093",53.4046466,-2.9800093,1009,107,0.1060455897,5
Royal Court Theatre,Theatre,United Kingdom,Liverpool,,"53.4075009, -2.9813424",53.4075009,-2.9813424,924,93,0.1006493506,7
Liverpool Lime Street,Train Station,United Kingdom,Liverpool,,"53.4072339, -2.979737",53.4072339,-2.979737,913,91,0.09967141292,4
London Waterloo,Train Station,United Kingdom,London,,"51.5048541, -0.1136621",51.5048541,-0.1136621,867,88,0.1014994233,6
Queen Street Mall,City Center,Australia,Brisbane,"A pedestrian mall in the heart of Brisbane's central business district, featuring shopping, dining, and entertainment options.","-27.4696523, 153.0252416",-27.4696523,153.0252416,853,110,0.1289566237,13
Liverpool Empire Theatre,Theatre,United Kingdom,Liverpool,,"53.4088725, -2.9782846",53.4088725,-2.9782846,843,85,0.1008303677,3
10th Arrondissement,Neighbourhood,France,Paris,,"48.8785238, 2.3541085",48.8785238,2.3541085,837,85,0.1015531661,29
South Bank,City Center,United Kingdom,London,"A vibrant area along the River Thames, featuring cultural attractions, street performers, and scenic views of the city.","51.503728, -0.1116764",51.503728,-0.1116764,830,85,0.1024096386,9
Brisbane City Hall,Landmark,Australia,Brisbane,"A historic building in Brisbane, serving as the seat of the Brisbane City Council and a popular tourist attraction.","-27.4686893, 153.0238365",-27.4686893,153.0238365,830,108,0.1301204819,10
Gare de l'Est,Train Station,France,Paris,"A major train station in Paris, serving as a hub for regional and international routes.","48.8768146, 2.3591978",48.8768146,2.3591978,808,77,0.0952970297,29
The Old Vic,Theatre,United Kingdom,London,,"51.50205949999999, -0.1093125",51.5020595,-0.1093125,794,80,0.1007556675,13
Central Station,Train Station,Australia,Brisbane,"One of the busiest and most important train stations in Brisbane, serving as a major hub for regional and intercity trains.","-27.466224, 153.0261831",-27.466224,153.0261831,780,101,0.1294871795,7
The British Museum,Museum,United Kingdom,London,"One of the world's largest and most comprehensive museums, housing a vast collection of artifacts and specimens from around the world.","51.5194133, -0.1269566",51.5194133,-0.1269566,772,87,0.1126943005,15
National Theatre,Theatre,United Kingdom,London,,"51.5072194, -0.1143667",51.5072194,-0.1143667,765,77,0.1006535948,2
Abbey Theatre,Theatre,Ireland,Dublin,,"53.3483986, -6.257178199999999",53.3483986,-6.2571782,758,61,0.08047493404,11
Puerta del Sol,Landmark,Spain,Madrid,"A historic square in Madrid, considered the center of the city and a popular meeting spot.","40.4169473, -3.7035285",40.4169473,-3.7035285,741,46,0.0620782726,19
Barrio de los Austrias,Neighbourhood,Spain,Madrid,,"40.41672790000001, -3.7032905",40.4167279,-3.7032905,739,44,0.05953991881,17
Madrid Estación del Norte Bus Station,Bus Station,Spain,Madrid,"The main bus station in Madrid, serving national and international routes.","40.41672790000001, -3.7032905",40.4167279,-3.7032905,739,44,0.05953991881,17
,,Spain,Madrid,,"40.41672790000001, -3.7032905",40.4167279,-3.7032905,739,44,0.05953991881,17
,,Spain,Madrid,,"40.41672790000001, -3.7032905",40.4167279,-3.7032905,739,44,0.05953991881,17
,,Spain,Madrid,,"40.41672790000001, -3.7032905",40.4167279,-3.7032905,739,44,0.05953991881,17
Sol,Neighbourhood,Spain,Madrid,,"40.4166635, -3.7041687",40.4166635,-3.7041687,738,45,0.06097560976,21
Gare du Nord,Train Station,France,Paris,"The busiest train station in Europe, serving as a major hub for high-speed trains and international routes.","48.8809706, 2.3561432",48.8809706,2.3561432,712,69,0.09691011236,22
Centre Pompidou,Museum,France,Paris,"A renowned modern art museum in Paris, known for its unique architecture.","48.860642, 2.352245",48.860642,2.352245,684,43,0.06286549708,15
London Heathrow Airport (nearest major airport),Airport,United Kingdom,Oxford,,"51.4679903, -0.4550471",51.4679903,-0.4550471,676,18,0.02662721893,0
Heathrow Airport,Airport,United Kingdom,London,,"51.4679903, -0.4550471",51.4679903,-0.4550471,676,18,0.02662721893,0
Quartier Saint-Merri,Neighbourhood,France,Paris,,"48.8573399, 2.3515768",48.8573399,2.3515768,652,36,0.05521472393,10
Manchester Central Coach Station,Bus Station,United Kingdom,Manchester,"The primary bus station in Manchester, serving national and international routes.","53.4782336, -2.2370553",53.4782336,-2.2370553,649,87,0.1340523883,8
Théâtre du Châtelet,Theatre,France,Paris,,"48.8577285, 2.3463104",48.8577285,2.3463104,641,43,0.06708268331,13
London Bridge,Train Station,United Kingdom,London,,"51.5078788, -0.0877321",51.5078788,-0.0877321,605,68,0.1123966942,7
La Rambla,City Center,Spain,Barcelona,"A bustling pedestrian street in central Barcelona, popular with tourists and locals alike.","41.3856087, 2.1698166",41.3856087,2.1698166,547,32,0.05850091408,16
Birmingham Moor Street,Train Station,United Kingdom,Birmingham,,"52.4783117, -1.8922797",52.4783117,-1.8922797,543,41,0.07550644567,9
Teatro Calderón,Theatre,Spain,Madrid,,"40.4140434, -3.7035111",40.4140434,-3.7035111,540,35,0.06481481481,18
Quartier des Archives,Neighbourhood,France,Paris,,"48.8575475, 2.3513765",48.8575475,2.3513765,531,28,0.0527306968,10
Quartier Les Îles,Neighbourhood,France,Paris,,"48.8575475, 2.3513765",48.8575475,2.3513765,531,28,0.0527306968,10
Plaza Mayor,City Center,Spain,Madrid,"The main square in Madrid, a popular gathering place for tourists and locals.","40.415511, -3.7074009",40.415511,-3.7074009,529,30,0.05671077505,22
National Football Museum,Museum,United Kingdom,Manchester,"A must-visit for football fans, this museum in Manchester showcases the world's greatest collection of football memorabilia and interactive exhibits.","53.48592980000001, -2.2421548",53.4859298,-2.2421548,523,51,0.09751434034,4
Plaça de Catalunya,City Center,Spain,Barcelona,"The largest and most important square in Barcelona, often used as a meeting point.","41.3866298, 2.1693988",41.3866298,2.1693988,522,33,0.0632183908,11
Manchester Cathedral,Landmark,United Kingdom,Manchester,"A magnificent medieval church in Manchester, known for its stunning architecture, beautiful stained glass windows, and rich history.","53.4851459, -2.2443156",53.4851459,-2.2443156,519,50,0.09633911368,5
Manchester Piccadilly Station,Train Station,United Kingdom,Manchester,"The busiest train station in Manchester, connecting the city to major cities across the UK.","53.4774049, -2.2309113",53.4774049,-2.2309113,518,68,0.1312741313,4
Manchester Piccadilly,Train Station,United Kingdom,Manchester,,"53.4774049, -2.2309113",53.4774049,-2.2309113,518,68,0.1312741313,4
Buchanan Street,City Center,United Kingdom,Glasgow,"Another popular shopping street in Glasgow, known for its high-end stores and street performers.","55.8611595, -4.2538615",55.8611595,-4.2538615,509,58,0.1139489194,5
Teatro Español,Theatre,Spain,Madrid,,"40.4149459, -3.7001863",40.4149459,-3.7001863,507,34,0.06706114398,17
Manchester Victoria,Train Station,United Kingdom,Manchester,,"53.4871436, -2.2423747",53.4871436,-2.2423747,504,47,0.09325396825,3
Temple Quarter,Neighbourhood,United Kingdom,Bristol,,"51.4511846, -2.5815728",51.4511846,-2.5815728,490,57,0.1163265306,2
Bristol Temple Meads,Train Station,United Kingdom,Bristol,,"51.4496963, -2.5810577",51.4496963,-2.5810577,487,56,0.1149897331,1
The Dings,Neighbourhood,United Kingdom,Bristol,,"51.4513646, -2.577395",51.4513646,-2.577395,472,54,0.1144067797,0
Birmingham Hippodrome,Theatre,United Kingdom,Birmingham,,"52.4745701, -1.8974403",52.4745701,-1.8974403,469,37,0.078891258,5
Rome Termini Station,Train Station,Italy,Rome,"The main train station in Rome, serving high-speed trains, regional trains, and buses.","41.9012873, 12.5015756",41.9012873,12.5015756,468,44,0.09401709402,19
Roma Termini Station,,Italy,Rome,,"41.9012873, 12.5015756",41.9012873,12.5015756,468,44,0.09401709402,19
Birmingham New Street,Train Station,United Kingdom,Birmingham,,"52.4791387, -1.898537",52.4791387,-1.898537,465,38,0.08172043011,9
Manchester Arena,Stadium,United Kingdom,Manchester,"One of the busiest concert and entertainment venues in the world, the Manchester Arena has hosted some of the biggest names in music and live events.","53.4880988, -2.2436621",53.4880988,-2.2436621,462,42,0.09090909091,2
Termini Train Station,Train Station,Italy,Rome,"The main train station in central Rome, serving both regional and high-speed trains.","41.8984211, 12.5042227",41.8984211,12.5042227,461,45,0.09761388286,15
Teatro Lara,Theatre,Spain,Madrid,,"40.4221091, -3.704466799999999",40.4221091,-3.7044668,448,29,0.06473214286,20
Basilica di Santa Maria Maggiore,Landmark,Italy,Rome,One of the largest churches in Rome and one of the four major basilicas of the city.,"41.89759859999999, 12.4984084",41.8975986,12.4984084,445,43,0.09662921348,18
Madison Square Garden,Stadium,United States,New York,,"40.7505045, -73.9934387",40.7505045,-73.9934387,435,45,0.1034482759,10
Penn Station,Train Station,United States,New York,,"40.750568, -73.993519",40.750568,-73.993519,434,45,0.1036866359,10
University of Glasgow,Landmark,Scotland,Glasgow,"One of the oldest and most prestigious universities in the world, known for its stunning architecture.","55.86167039999999, -4.2583345",55.8616704,-4.2583345,434,51,0.1175115207,6
NY Penn Station,,United States,New York,,"40.750568, -73.993519",40.750568,-73.993519,434,45,0.1036866359,10
Fitzbillies,Landmark,United Kingdom,Cambridge,"A beloved bakery and cafe in Cambridge, famous for its Chelsea buns.","52.1950788, 0.1312729",52.1950788,0.1312729,417,83,0.1990407674,1
Cambridge Railway Station,Train Station,United Kingdom,Cambridge,The busiest and most important railway station in Cambridge.,"52.1942193, 0.1374478",52.1942193,0.1374478,415,82,0.1975903614,1
Glasgow Queen Street Station,Train Station,United Kingdom,Glasgow,,"55.8622865, -4.251094699999999",55.8622865,-4.2510947,407,45,0.1105651106,5
Tower of London,Landmark,United Kingdom,London,"A historic castle and UNESCO World Heritage Site, known for its role as a prison and execution site.","51.50811239999999, -0.0759493",51.5081124,-0.0759493,406,46,0.1133004926,2
The Glasgow Royal Concert Hall,Theatre,United Kingdom,Glasgow,"A popular venue for classical music concerts, with a capacity of over 2,500 people.","55.86436149999999, -4.252901899999999",55.8643615,-4.2529019,398,44,0.1105527638,4
Temple Bar,Neighbourhood,Ireland,Dublin,,"53.3449379, -6.267473100000001",53.3449379,-6.2674731,386,38,0.09844559585,9
The Lighthouse,Landmark,United Kingdom,Glasgow,"Scotland's Centre for Design and Architecture, housed in a former newspaper office designed by Charles Rennie Mackintosh.","55.85978859999999, -4.255383699999999",55.8597886,-4.2553837,370,44,0.1189189189,4
Great Ocean Road,Tourist Attraction,Australia,Melbourne,"A scenic coastal road stretching for 243 kilometres, offering breathtaking views of the coastline and numerous natural attractions and small towns.","-37.8136276, 144.9630576",-37.8136276,144.9630576,369,16,0.0433604336,8
Edinburgh Airport,Airport,United Kingdom,Edinburgh,,"55.94717840000001, -3.3607946",55.9471784,-3.3607946,358,18,0.05027932961,1
Milano Centrale,Train Station,Italy,Milan,,"45.4839709, 9.2060969",45.4839709,9.2060969,350,16,0.04571428571,9
Melbourne Central,Landmark,Australia,Melbourne,"A major shopping centre and transportation hub, featuring a distinctive shot tower and hosting various events and performances.","-37.8102361, 144.9627652",-37.8102361,144.9627652,348,18,0.05172413793,6
Royal Exchange,Neighbourhood,Ireland,Dublin,,"53.34404809999999, -6.267214399999999",53.3440481,-6.2672144,347,35,0.1008645533,10
Malpensa Airport,Airport,Italy,Milan,,"45.4870904, 9.2035697",45.4870904,9.2035697,347,16,0.04610951009,9
Malasaña,Neighbourhood,Spain,Madrid,"A vibrant and trendy neighbourhood in Madrid, known for its lively nightlife and street art.","40.4233716, -3.7077922",40.4233716,-3.7077922,345,23,0.06666666667,16
Universidad,Neighbourhood,Spain,Madrid,,"40.4233716, -3.7077922",40.4233716,-3.7077922,345,23,0.06666666667,16
North City,Neighbourhood,Ireland,Dublin,,"53.3495405, -6.260478699999999",53.3495405,-6.2604787,341,31,0.09090909091,11
Teatro Lope de Vega,Theatre,Spain,Madrid,,"40.4218277, -3.7087124",40.4218277,-3.7087124,341,20,0.05865102639,20
Port Authority Bus Terminal,,United States,New York,,"40.7569006, -73.9902798",40.7569006,-73.9902798,341,31,0.09090909091,12
State Library Victoria,Museum,Australia,Melbourne,"A historic library with a diverse collection of books, manuscripts, and cultural artifacts.","-37.8097255, 144.9654504",-37.8097255,144.9654504,340,17,0.05,4
Melbourne Central Station,Train Station,Australia,Melbourne,"A major train station with a distinctive dome, serving regional and suburban trains.","-37.8116182, 144.964609",-37.8116182,144.964609,335,16,0.04776119403,7
Bath Spa Station,Train Station,United Kingdom,Bath,,"51.37773300000001, -2.356989",51.377733,-2.356989,334,39,0.1167664671,8
Wien Hauptbahnhof,,Austria,Vienna,,"48.1851873, 16.3765973",48.1851873,16.3765973,333,22,0.06606606607,6
Hauptbahnhof area,Neighbourhood,Austria,Vienna,,"48.1851873, 16.3765973",48.1851873,16.3765973,333,22,0.06606606607,6
Vienna Central Station,Train Station,Austria,Vienna,"The main railway station in Vienna, serving as a major hub for national and international train routes.","48.1851873, 16.3765973",48.1851873,16.3765973,333,22,0.06606606607,6
Wien Hauptbahnhof,Train Station,Austria,Vienna,,"48.1851873, 16.3765973",48.1851873,16.3765973,333,22,0.06606606607,6
Cambridge University Botanic Garden,Landmark,United Kingdom,Cambridge,"A beautiful and historic botanical garden with over 8,000 plant species.","52.1936373, 0.1273479",52.1936373,0.1273479,325,45,0.1384615385,0
Grand Opera House,Theatre,United Kingdom,Belfast,,"54.5953221, -5.9352246",54.5953221,-5.9352246,311,38,0.1221864952,4
Sants Estació,Train Station,Spain,Barcelona,"The main railway station in Barcelona and the second busiest in Spain, serving both high-speed and regional trains.","41.37896, 2.13983",41.37896,2.13983,304,23,0.07565789474,8
Brisbane Transit Centre,Bus Station,Australia,Brisbane,"A major bus station in Brisbane, serving as a hub for local, regional, and interstate bus services.","-27.4659174, 153.0174252",-27.4659174,153.0174252,301,13,0.04318936877,3
Glasgow Royal Concert Hall,Theatre,Scotland,Glasgow,A popular concert venue that hosts a wide variety of musical and cultural performances.,"55.86428799999999, -4.251657000000001",55.864288,-4.251657,301,30,0.09966777409,4
Haymarket,Train Station,United Kingdom,Edinburgh,,"55.9460913, -3.2168546",55.9460913,-3.2168546,296,37,0.125,13
Buchanan Bus Station,Bus Station,United Kingdom,Glasgow,"The main bus station in Glasgow, serving both local and national routes.","55.8649724, -4.250782399999999",55.8649724,-4.2507824,294,30,0.1020408163,3
Buchanan Bus Station,Bus Station,Scotland,Glasgow,"The main bus station in Glasgow, serving national and international routes.","55.8649724, -4.250782399999999",55.8649724,-4.2507824,294,30,0.1020408163,3
Leonardo da Vinci–Fiumicino Airport,,Italy,Rome,,"41.8034632, 12.2519211",41.8034632,12.2519211,291,2,0.006872852234,0
Fiumicino Aeroporto Train Station,Train Station,Italy,Rome,The main train station serving the airport and connecting to central Rome.,"41.8034632, 12.2519211",41.8034632,12.2519211,291,2,0.006872852234,0
Leonardo da Vinci International Airport,Airport,Italy,Rome,The main international airport serving Rome.,"41.8034632, 12.2519211",41.8034632,12.2519211,291,2,0.006872852234,0
York Station,Train Station,United Kingdom,York,,"53.957981, -1.093191",53.957981,-1.093191,284,28,0.0985915493,4
Camden Market,City Center,United Kingdom,London,"A popular market in the Camden Town neighborhood, offering a variety of unique and eclectic goods and food.","51.5390261, -0.1425516",51.5390261,-0.1425516,284,32,0.1126760563,10
Emirates Stadium,Stadium,United Kingdom,London,,"51.5550821, -0.1083998",51.5550821,-0.1083998,283,37,0.1307420495,3
Newcastle Central Station,Train Station,United Kingdom,Gateshead,,"54.9684999, -1.6170742",54.9684999,-1.6170742,283,31,0.109540636,11
Trevi Fountain,,Italy,Rome,,"41.9009325, 12.483313",41.9009325,12.483313,282,11,0.0390070922,7
Trevi Fountain,Landmark,Italy,Rome,"A popular and iconic fountain in Rome, known for its stunning design and tradition of throwing coins for good luck.","41.9009325, 12.483313",41.9009325,12.483313,282,11,0.0390070922,7
Glasgow City Chambers,City Center,United Kingdom,Glasgow,The headquarters of Glasgow City Council and a popular tourist attraction for its grand architecture.,"55.8607454, -4.2593577",55.8607454,-4.2593577,281,31,0.1103202847,5
Glasgow City Chambers,Landmark,Scotland,Glasgow,The headquarters of Glasgow City Council and a grand example of Victorian architecture.,"55.8607454, -4.2593577",55.8607454,-4.2593577,281,31,0.1103202847,5
Glasgow Central Station,Train Station,United Kingdom,Glasgow,,"55.8591118, -4.2581088",55.8591118,-4.2581088,272,32,0.1176470588,4
Glasgow Central Station,Train Station,United Kingdom,Glasgow,"The busiest train station in Scotland, serving both local and national routes.","55.8591118, -4.2581088",55.8591118,-4.2581088,272,32,0.1176470588,4
St. Paul's Cathedral,Landmark,United Kingdom,London,"An iconic church and one of London's most recognizable landmarks, known for its dome and architectural beauty.","51.5138453, -0.0983506",51.5138453,-0.0983506,271,34,0.1254612546,5
Royal Albert Hall,Theatre,United Kingdom,London,,"51.5009088, -0.177366",51.5009088,-0.177366,271,28,0.1033210332,3
Central Bus Station,Bus Station,Australia,Sydney,"The main bus station in Sydney, serving both local and interstate buses.","-33.8622503, 151.207684",-33.8622503,151.207684,271,33,0.1217712177,5
Notre-Dame de Paris,Landmark,France,Paris,"A Gothic cathedral in Paris, known for its stunning architecture and cultural significance.","48.85296820000001, 2.3499021",48.8529682,2.3499021,268,27,0.1007462687,3
Quartier Les Halles,Neighbourhood,France,Paris,,"48.8623348, 2.3447356",48.8623348,2.3447356,268,33,0.1231343284,15
The Rocks,Neighbourhood,Australia,Sydney,"A historic area with cobblestone streets, colonial architecture, and popular markets and restaurants.","-33.859062, 151.2080421",-33.859062,151.2080421,266,34,0.1278195489,2
Melbourne Town Hall,Landmark,Australia,Melbourne,"A majestic building in the city centre, featuring Victorian architecture and hosting various events and exhibitions throughout the year.","-37.8150856, 144.9665653",-37.8150856,144.9665653,265,11,0.04150943396,3
Sistine Chapel,Landmark,Italy,Rome,"The most famous chapel in the Apostolic Palace, known for its stunning frescoes by Michelangelo.","41.8967068, 12.4822025",41.8967068,12.4822025,265,9,0.03396226415,8
Circular Quay Station,Train Station,Australia,Sydney,,"-33.86116510000001, 151.210709",-33.8611651,151.210709,260,31,0.1192307692,5
National Railway Museum,Museum,United Kingdom,York,,"53.96054669999999, -1.096366",53.9605467,-1.096366,260,23,0.08846153846,0
Pantheon,Landmark,Italy,Rome,"A well-preserved ancient Roman temple, now used as a church.","41.8986108, 12.4768729",41.8986108,12.4768729,259,10,0.03861003861,13
Pantheon,,Italy,Rome,,"41.8986108, 12.4768729",41.8986108,12.4768729,259,10,0.03861003861,13
Times Square Fan Zone,,United States,New York,,"40.7579747, -73.9855426",40.7579747,-73.9855426,259,25,0.09652509653,6
Atocha Railway Station,Train Station,Spain,Madrid,"The largest and busiest train station in Madrid, serving high-speed and regional trains.","40.4050017, -3.688328099999999",40.4050017,-3.6883281,256,13,0.05078125,10
Madrid Atocha Railway Station,Train Station,Spain,Madrid,The largest railway station in Madrid and the primary hub for high-speed trains.,"40.4049977, -3.6883272",40.4049977,-3.6883272,256,13,0.05078125,10
Manchester Art Gallery,Museum,United Kingdom,Manchester,"A public art gallery in Manchester, housing an extensive collection of paintings, sculptures, and decorative art from the 19th century to the present day.","53.4786943, -2.2413604",53.4786943,-2.2413604,254,33,0.1299212598,10
Central Station,Train Station,Australia,Sydney,"The largest and busiest railway station in New South Wales, serving both regional and metropolitan trains.","-33.8831733, 151.2069512",-33.8831733,151.2069512,252,16,0.06349206349,7
Sydney Central Station,Train Station,Australia,Sydney,,"-33.8831733, 151.2069512",-33.8831733,151.2069512,252,16,0.06349206349,7
George Square,City Center,Scotland,Glasgow,"The principal civic square in Glasgow, surrounded by important buildings and monuments.","55.8611637, -4.2501651",55.8611637,-4.2501651,250,27,0.108,4
George Square,City Center,United Kingdom,Glasgow,"The principal civic square in Glasgow, with statues, monuments, and a popular spot for events and rallies.","55.8611637, -4.2501651",55.8611637,-4.2501651,250,27,0.108,4
Farringdon,Train Station,United Kingdom,London,,"51.5215324, -0.1042414",51.5215324,-0.1042414,250,25,0.1,6
Circular Quay,City Center,Australia,Sydney,"A popular gathering place in Sydney, known for its ferry terminals and iconic views of the Sydney Opera House and Harbour Bridge.","-33.8611374, 151.2126457",-33.8611374,151.2126457,250,30,0.12,3
Chinatown,Landmark,Australia,Melbourne,"A vibrant neighborhood with a variety of Chinese restaurants, shops, and cultural events.","-37.812006, 144.9668036",-37.812006,144.9668036,249,9,0.03614457831,4
Barri Gòtic,Landmark,Spain,Barcelona,"The oldest and most historic district of Barcelona, featuring Gothic architecture and narrow streets.","41.3819247, 2.1773052",41.3819247,2.1773052,249,12,0.04819277108,19
Piccolo Teatro,Theatre,Italy,Milan,,"45.4666535, 9.184752",45.4666535,9.184752,248,14,0.0564516129,1
Palau de la Música Catalana,Theatre,Spain,Barcelona,,"41.3875752, 2.1753128",41.3875752,2.1753128,247,18,0.07287449393,9
Principality Stadium,Stadium,United Kingdom,Cardiff,,"51.4782085, -3.1826341",51.4782085,-3.1826341,244,26,0.106557377,11
Quartier Saint‑Germain‑l'Auxerrois,Neighbourhood,France,Paris,,"48.86156159999999, 2.3337187",48.8615616,2.3337187,242,19,0.07851239669,1
Broadway Theatre District,Theatre,United States,New York,,"40.759011, -73.9844722",40.759011,-73.9844722,242,21,0.0867768595,6
Casco Viejo,City Center,Panama,Panama City,"A historic district in Panama City, known for its colonial architecture and vibrant atmosphere.","8.9531326, -79.5357556",8.9531326,-79.5357556,241,28,0.1161825726,4
Louvre Museum,Museum,France,Paris,"One of the most famous museums in the world, housing a vast collection of art and artifacts.","48.8606111, 2.337644",48.8606111,2.337644,238,25,0.1050420168,7
Museo del Canal Interoceanico de Panama,Museum,Panama,Panama City,A museum in Panama City dedicated to the history and construction of the Panama Canal.,"8.9520241, -79.5346975",8.9520241,-79.5346975,236,27,0.1144067797,4
Plaza de la Independencia,Landmark,Panama,Panama City,"The main square in Panama City, surrounded by important government buildings and hosting various events and celebrations.","8.9525047, -79.5346138",8.9525047,-79.5346138,236,27,0.1144067797,4
Prague Main Railway Station (Praha hlavní nádraží),,Czech Republic,Prague,,"50.083273, 14.4347349",50.083273,14.4347349,235,6,0.02553191489,2
Big Ben,Landmark,United Kingdom,London,"The famous clock tower and bell of the Palace of Westminster, a symbol of London and the United Kingdom.","51.50072919999999, -0.1246254",51.5007292,-0.1246254,232,30,0.1293103448,2
The Palace Theatre,Theatre,United Kingdom,Manchester,"A historic theatre in Manchester, known for hosting a variety of performances including musicals, plays, and concerts.","53.4749948, -2.2409776",53.4749948,-2.2409776,230,26,0.1130434783,6
Gatwick Airport,Airport,United Kingdom,London,,"51.1536621, -0.1820629",51.1536621,-0.1820629,230,7,0.03043478261,0
Quartier de la Chaussée-d'Antin,Neighbourhood,France,Paris,,"48.8728752, 2.3303724",48.8728752,2.3303724,224,22,0.09821428571,6
Northern Quarter,City Center,United Kingdom,Manchester,"A hip and creative area in Manchester, home to independent shops, cafes, bars, and street art.","53.4825488, -2.234479",53.4825488,-2.234479,220,33,0.15,6
Festival Theatre,Theatre,United Kingdom,Edinburgh,,"55.9467678, -3.1859523",55.9467678,-3.1859523,215,20,0.09302325581,11
Changi Airport,Airport,Singapore,Singapore,,"1.358604, 103.9899436",1.358604,103.9899436,213,7,0.03286384977,3
Chinatown,City Center,United Kingdom,Manchester,"A bustling district in Manchester, known for its vibrant Chinese community, authentic restaurants, and annual Chinese New Year celebrations.","53.478707, -2.240676",53.478707,-2.240676,213,32,0.1502347418,10
Cardiff Central Station,Train Station,United Kingdom,Cardiff,,"51.4759636, -3.1790303",51.4759636,-3.1790303,212,21,0.09905660377,6
Palais Garnier,Theatre,France,Paris,"A historic opera house in Paris, known for its grand architecture and performances.","48.8719697, 2.3316014",48.8719697,2.3316014,212,23,0.108490566,6
Connolly / North Dock,Neighbourhood,Ireland,Dublin,,"53.3509114, -6.2499819",53.3509114,-6.2499819,212,18,0.08490566038,7
Venezia Santa Lucia,Train Station,Italy,Venice,,"45.4410697, 12.3210436",45.4410697,12.3210436,211,5,0.02369668246,6
Reina Sofía National Museum,Museum,Spain,Madrid,"A modern art museum in Madrid, known for its impressive collection of contemporary works.","40.4079123, -3.6945569",40.4079123,-3.6945569,210,11,0.05238095238,11
Reina Sofía Museum,Museum,Spain,Madrid,"A modern art museum in Madrid, known for its collection of 20th-century Spanish art.","40.4079123, -3.6945569",40.4079123,-3.6945569,210,11,0.05238095238,11
Galeries Lafayette,City Center,France,Paris,"A famous department store in Paris, known for its elegant architecture and luxury brands.","48.8736224, 2.3321099",48.8736224,2.3321099,208,19,0.09134615385,5
Teatro alla Scala,Theatre,Italy,Milan,,"45.4674021, 9.1895512",45.4674021,9.1895512,207,15,0.07246376812,3
Gran Teatre del Liceu,Theatre,Spain,Barcelona,"One of the most prestigious opera houses in Europe, known for its exceptional acoustics.","41.3801969, 2.1732948",41.3801969,2.1732948,205,10,0.0487804878,14
Sagrada Familia,Landmark,Spain,Barcelona,"A large unfinished Roman Catholic church designed by Antoni Gaudí, an iconic symbol of Barcelona.","41.4036299, 2.1743558",41.4036299,2.1743558,204,21,0.1029411765,15
Theatre Royal,Theatre,United Kingdom,Glasgow,,"55.8663514, -4.256219",55.8663514,-4.256219,201,19,0.09452736318,3
Buckingham Palace,Landmark,United Kingdom,London,"The official residence of the British monarch, known for its grand architecture and iconic Changing of the Guard ceremony.","51.501364, -0.14189",51.501364,-0.14189,200,21,0.105,2
Freihausviertel,Neighbourhood,Austria,Vienna,,"48.20806959999999, 16.3713095",48.2080696,16.3713095,199,18,0.09045226131,1
Schaumburgergrund,Neighbourhood,Austria,Vienna,,"48.20806959999999, 16.3713095",48.2080696,16.3713095,199,18,0.09045226131,1
Botschaftsviertel,Neighbourhood,Austria,Vienna,,"48.20806959999999, 16.3713095",48.2080696,16.3713095,199,18,0.09045226131,1
Gare de Lyon,Train Station,France,Paris,"One of the seven major train stations in Paris, serving as a hub for regional and high-speed trains.","48.84430380000001, 2.3743773",48.8443038,2.3743773,199,20,0.1005025126,8
Widmerviertel,Neighbourhood,Austria,Vienna,,"48.20806959999999, 16.3713095",48.2080696,16.3713095,199,18,0.09045226131,1
Paris-Gare de Lyon,Train Station,France,Paris,"One of the six major train stations in Paris, serving trains to southeastern France and Switzerland.","48.84430380000001, 2.3743773",48.8443038,2.3743773,199,20,0.1005025126,8
Southern Cross Station,Train Station,Australia,Melbourne,"The busiest train station in Melbourne, serving regional and interstate routes.","-37.81839, 144.9525",-37.81839,144.9525,195,19,0.09743589744,6
Brighton Station,Train Station,United Kingdom,Brighton,,"50.8288519, -0.1410151",50.8288519,-0.1410151,194,24,0.1237113402,8
Teatro Nacional de Panama,Theatre,Panama,Panama City,"The main theatre in Panama City, hosting various cultural performances and events.","8.9528341, -79.53312559999999",8.9528341,-79.5331256,194,18,0.09278350515,3
Chueca,Neighbourhood,Spain,Madrid,"A popular and diverse neighbourhood in Madrid, known for its LGBT-friendly atmosphere and events.","40.423093, -3.6995645",40.423093,-3.6995645,192,19,0.09895833333,14
MIA Airport,,United States,Miami,,"25.7923496, -80.28230590000001",25.7923496,-80.2823059,192,6,0.03125,0
Miami International Airport,Airport,United States,Miami,,"25.7923496, -80.28230590000001",25.7923496,-80.2823059,192,6,0.03125,0
Cardiff Queen Street Station,Train Station,United Kingdom,Cardiff,,"51.4819233, -3.1706814",51.4819233,-3.1706814,191,25,0.1308900524,4
Capitol Theatre,Theatre,Australia,Sydney,,"-33.8793987, 151.2063031",-33.8793987,151.2063031,190,12,0.06315789474,7
Hofburgkapelle,Landmark,Austria,Vienna,"A historic chapel inside the Hofburg Palace, known for its stunning Baroque interior and famous Vienna Boys' Choir.","48.2067363, 16.36567",48.2067363,16.36567,187,17,0.09090909091,3
Chinatown,Neighbourhood,Australia,Sydney,"A vibrant neighbourhood in Sydney with a rich Chinese heritage, offering a variety of restaurants, shops, and cultural events.","-33.8796467, 151.2059177",-33.8796467,151.2059177,186,12,0.06451612903,7
Dublin Connolly,Train Station,Ireland,Dublin,,"53.3519762, -6.248480799999999",53.3519762,-6.2484808,185,17,0.09189189189,7
Casa Batlló,Landmark,Spain,Barcelona,"A unique and colourful building designed by Antoni Gaudí, now a museum open to the public.","41.3917, 2.164918",41.3917,2.164918,184,23,0.125,3
St. Stephan's Cathedral,Landmark,Austria,Schwechat,"A magnificent Gothic cathedral in Vienna, known for its stunning architecture and religious significance.","48.2084114, 16.3734707",48.2084114,16.3734707,183,16,0.08743169399,4
St. Stephen’s Cathedral (Stephansdom),,Austria,Vienna,,"48.2084114, 16.3734707",48.2084114,16.3734707,183,16,0.08743169399,4
St. Stephen's Cathedral,Landmark,Austria,Vienna,"One of the most iconic landmarks in Vienna, this Gothic cathedral is known for its beautiful architecture and important role in the city's history.","48.2084114, 16.3734707",48.2084114,16.3734707,183,16,0.08743169399,4
Manchester Town Hall,Landmark,United Kingdom,Manchester,"A stunning example of Gothic Revival architecture, the town hall is a popular landmark and venue for events in Manchester.","53.4789561, -2.2440023",53.4789561,-2.2440023,182,22,0.1208791209,9
Toronto Union Station,Train Station,Canada,Toronto,,"43.6452621, -79.3805536",43.6452621,-79.3805536,180,6,0.03333333333,3
Scotiabank Arena,Stadium,Canada,Toronto,,"43.6434661, -79.3790989",43.6434661,-79.3790989,180,7,0.03888888889,3
Union Station (GO/VIA/TTC),,Canada,Toronto,,"43.64539920000001, -79.3798073",43.6453992,-79.3798073,179,6,0.03351955307,3
Westminster Abbey,Landmark,United Kingdom,London,"A historic church and UNESCO World Heritage Site, known for its royal coronations and burials.","51.4993695, -0.1272993",51.4993695,-0.1272993,179,26,0.1452513966,3
Great Victoria Street Station,Train Station,United Kingdom,Belfast,,"54.5932292, -5.9342376",54.5932292,-5.9342376,176,27,0.1534090909,3
Glasgow Film Theatre,Theatre,United Kingdom,Glasgow,"A historic cinema showing independent, foreign, and classic films.","55.865662, -4.261247",55.865662,-4.261247,171,23,0.134502924,5
Glasgow Film Theatre,Theatre,Scotland,Glasgow,"An independent cinema and one of the oldest in Scotland, showcasing a diverse range of films.","55.865662, -4.261247",55.865662,-4.261247,171,23,0.134502924,5
Theatre Royal Brighton,Theatre,United Kingdom,Brighton,,"50.82332779999999, -0.1397068",50.8233278,-0.1397068,171,24,0.1403508772,6
Downtown Boston (fan zone area),,United States,Boston,,"42.35552750000001, -71.0565313",42.3555275,-71.0565313,168,10,0.05952380952,4
Roma Street Station,Train Station,Australia,Brisbane,"A major train station in Brisbane, serving as a hub for regional and suburban trains.","-27.4657381, 153.0187162",-27.4657381,153.0187162,167,11,0.06586826347,2
Eiffel Tower,Landmark,France,Paris,"One of the most iconic landmarks in Paris, known for its stunning views and cultural significance.","48.85837009999999, 2.2944813",48.8583701,2.2944813,166,14,0.0843373494,2
Marvel Stadium,Stadium,Australia,Melbourne,,"-37.8164974, 144.9475972",-37.8164974,144.9475972,163,14,0.08588957055,3
Greyhound Bus Station,Bus Station,United States,Washington D.C.,"The main bus station in Washington D.C., serving national and international routes.","38.89729, -77.006203",38.89729,-77.006203,163,8,0.0490797546,0
Charles de Gaulle Airport,Airport,France,Paris,"One of the busiest airports in Europe, serving as the main international airport for Paris.","48.8735283, 2.3218961",48.8735283,2.3218961,161,21,0.1304347826,4
Leeds Station,Train Station,United Kingdom,Leeds,,"53.7949721, -1.5473907",53.7949721,-1.5473907,161,11,0.06832298137,2
Union Station,Train Station,United States,Washington D.C.,,"38.89832020000001, -77.00611359999999",38.8983202,-77.0061136,160,8,0.05,0
Albert Square,City Center,United Kingdom,Manchester,"The main square in Manchester, home to the iconic Manchester Town Hall and a popular gathering spot for locals and tourists alike.","53.479603, -2.2455401",53.479603,-2.2455401,159,19,0.1194968553,8
Edinburgh Playhouse,Theatre,United Kingdom,Edinburgh,,"55.9568976, -3.1853968",55.9568976,-3.1853968,158,13,0.08227848101,4
South Station,,United States,Boston,,"42.3519448, -71.0551625",42.3519448,-71.0551625,156,9,0.05769230769,2
Old Town,Neighbourhood,Czech Republic,Prague,,"50.0876983, 14.4211483",50.0876983,14.4211483,153,22,0.1437908497,11
Town Hall Station,Train Station,Australia,Sydney,,"-33.8732453, 151.2071329",-33.8732453,151.2071329,153,10,0.06535947712,2
Plaza de España,Landmark,Spain,Madrid,"A large square in Madrid, known for its beautiful architecture and iconic statue of Cervantes.","40.423669, -3.7109528",40.423669,-3.7109528,153,10,0.06535947712,10
Old Town Square,,Czech Republic,Prague,,"50.0875692, 14.4211874",50.0875692,14.4211874,153,22,0.1437908497,11
Brighton Dome,Theatre,United Kingdom,Brighton,,"50.8236999, -0.1380842",50.8236999,-0.1380842,148,22,0.1486486486,7
Suncorp Stadium,Stadium,Australia,Brisbane,"A multi-purpose stadium in Brisbane, hosting major sporting events and concerts.","-27.4647989, 153.0096108",-27.4647989,153.0096108,148,3,0.02027027027,1
Merchants Quay,Neighbourhood,Ireland,Dublin,,"53.3441883, -6.2732313",53.3441883,-6.2732313,147,24,0.1632653061,6
Gaiety Theatre,Theatre,Ireland,Dublin,,"53.34046129999999, -6.2615754",53.3404613,-6.2615754,147,17,0.1156462585,4
Atarazanas Market,Landmark,Spain,Malaga,A bustling indoor market selling fresh produce and local delicacies.,"36.7181669, -4.4241106",36.7181669,-4.4241106,145,9,0.06206896552,4
NEMO Science Museum,Museum,Netherlands,Amsterdam,"A hands-on science museum in Amsterdam, offering interactive exhibits and educational activities for all ages.","52.3675734, 4.9041389",52.3675734,4.9041389,145,5,0.03448275862,2
Amsterdam Centrum,City Center,Netherlands,Amsterdam,"The historic city center of Amsterdam, known for its picturesque canals, narrow streets and charming architecture.","52.36759199999999, 4.904146900000001",52.367592,4.9041469,145,5,0.03448275862,2
Calle Larios,,Spain,Malaga,,"36.7194687, -4.421575",36.7194687,-4.421575,145,9,0.06206896552,4
Calle Larios,Landmark,Spain,Malaga,"A bustling pedestrian street in the city center, lined with shops and restaurants.","36.7194687, -4.421575",36.7194687,-4.421575,145,9,0.06206896552,4
Theatre Royal,Theatre,United Kingdom,Bath,,"51.3820512, -2.3625459",51.3820512,-2.3625459,144,27,0.1875,5
Cairns Railway Station,Train Station,Australia,Cairns,,"-16.925773, 145.77113",-16.925773,145.77113,144,10,0.06944444444,3
Basilica di San Pietro in Vincoli,Landmark,Italy,Rome,"A church in Rome, known for housing the famous sculpture of Moses by Michelangelo.","41.89379840000001, 12.4931498",41.8937984,12.4931498,144,9,0.0625,9
The Egg Theatre,Theatre,United Kingdom,Bath,,"51.38184, -2.3632433",51.38184,-2.3632433,144,27,0.1875,5
Teatro Verdi,Theatre,Italy,Florence,,"43.7702262, 11.2610393",43.7702262,11.2610393,144,9,0.0625,3
De Wallen,Landmark,Netherlands,Amsterdam,"The largest and most famous red-light district in Amsterdam, known for its lively nightlife and unique character.","52.3718604, 4.895861000000001",52.3718604,4.895861,142,10,0.07042253521,17
Cartagena Bus Terminal,Bus Station,Colombia,Cartagena,"The main bus terminal in Cartagena, serving national and international routes.","10.3932277, -75.4832311",10.3932277,-75.4832311,141,3,0.02127659574,0
Royal Exchange Theatre,Theatre,United Kingdom,Manchester,,"53.4823441, -2.245185",53.4823441,-2.245185,140,13,0.09285714286,7
Oxford Station,Train Station,United Kingdom,Oxford,,"51.7532879, -1.2699127",51.7532879,-1.2699127,138,18,0.1304347826,1
State Theatre,Theatre,Australia,Sydney,,"-33.8708292, 151.2076151",-33.8708292,151.2076151,138,7,0.05072463768,6
Oxford Railway Station,Train Station,United Kingdom,Oxford,A major railway station connecting Oxford to various destinations across the UK.,"51.7532879, -1.2699127",51.7532879,-1.2699127,138,18,0.1304347826,1
Teatro della Pergola,Theatre,Italy,Florence,,"43.77321, 11.261556",43.77321,11.261556,137,6,0.04379562044,4
Estação de São Bento,Train Station,Portugal,Porto,,"41.1456094, -8.6103747",41.1456094,-8.6103747,137,12,0.08759124088,16
Quartier du Palais Royal,Neighbourhood,France,Paris,,"48.865221, 2.3353643",48.865221,2.3353643,133,5,0.03759398496,2
Aeropuerto Internacional Benito Juárez,Airport,Mexico,Mexico City,,"19.4360762, -99.07190829999999",19.4360762,-99.0719083,133,2,0.01503759398,0
Sydney Tower Eye,Landmark,Australia,Sydney,"An observation tower and popular tourist attraction in Sydney, offering panoramic views of the city.","-33.8703155, 151.2088801",-33.8703155,151.2088801,133,7,0.05263157895,6
AICM Airport,,Mexico,Mexico City,,"19.4360762, -99.07190829999999",19.4360762,-99.0719083,133,2,0.01503759398,0
München Hauptbahnhof,Train Station,Germany,Munich,,"48.1404358, 11.5578497",48.1404358,11.5578497,132,1,0.007575757576,5
Munich Hauptbahnhof,Train Station,Germany,Munich,"The main railway station in Munich, serving as a major hub for both regional and international train lines.","48.1404358, 11.5578497",48.1404358,11.5578497,132,1,0.007575757576,5
Colosseum,,Italy,Rome,,"41.8902102, 12.4922309",41.8902102,12.4922309,131,4,0.03053435115,5
Colosseum,Landmark,Italy,Rome,"An iconic landmark of Rome, known as the largest amphitheater ever built.","41.8902102, 12.4922309",41.8902102,12.4922309,131,4,0.03053435115,5
Shakespeare's Globe,Theatre,United Kingdom,London,,"51.508076, -0.09719399999999999",51.508076,-0.097194,130,17,0.1307692308,6
Playhouse Theatre,Theatre,Australia,Hobart,,"-42.8815034, 147.3252383",-42.8815034,147.3252383,130,12,0.09230769231,3
Wynyard Station,Train Station,Australia,Sydney,,"-33.8660077, 151.2055521",-33.8660077,151.2055521,129,12,0.09302325581,7
Barcelona Sants,Train Station,Spain,Barcelona,,"41.3754426, 2.1355003",41.3754426,2.1355003,128,8,0.0625,3
Bruxelles-Midi,Train Station,Belgium,Brussels,,"50.83644020000001, 4.3370087",50.8364402,4.3370087,127,5,0.03937007874,5
Quartier de la Sorbonne,Neighbourhood,France,Paris,,"48.8495925, 2.3448768",48.8495925,2.3448768,126,18,0.1428571429,4
Gare Saint-Lazare,Train Station,France,Paris,"One of the six major train stations in Paris, serving as a hub for regional and suburban trains.","48.877243, 2.3253114",48.877243,2.3253114,125,13,0.104,5
Gran Vía,City Center,Spain,Madrid,"A major street in Madrid, known for its grand architecture and bustling atmosphere.","40.4189329, -3.6968903",40.4189329,-3.6968903,125,11,0.088,8
Automobile and Fashion Museum,Museum,Spain,Malaga,A unique museum showcasing a collection of vintage cars and fashion items.,"36.7178196, -4.425557",36.7178196,-4.425557,124,9,0.07258064516,3
Mansion House,Neighbourhood,Ireland,Dublin,,"53.34029710000001, -6.2578301",53.3402971,-6.2578301,124,20,0.1612903226,2
Bondi Beach,Tourist Attraction,Australia,Sydney,"One of the most famous and popular beaches in Australia, known for its golden sand, clear water, and lively atmosphere.","-33.8914755, 151.2766845",-33.8914755,151.2766845,123,10,0.08130081301,2
Teatro Municipal de Santiago,Theatre,Chile,Santiago,,"-33.4408442, -70.6475847",-33.4408442,-70.6475847,123,14,0.1138211382,2
Hobart Central Bus Station,Bus Station,Australia,Hobart,,"-42.8811566, 147.323987",-42.8811566,147.323987,122,11,0.09016393443,3
Dorchester Square,City Center,Canada,Montreal,A historic public square in downtown Montreal and a popular gathering place for locals and tourists.,"45.4999969, -73.5717135",45.4999969,-73.5717135,122,4,0.03278688525,4
Napoli Centrale,Train Station,Italy,Naples,,"40.8530135, 14.2723254",40.8530135,14.2723254,121,5,0.04132231405,15
Lyceum Theatre,Theatre,United Kingdom,Sheffield,,"53.3804283, -1.4666792",53.3804283,-1.4666792,121,18,0.1487603306,7
Plaza de la Constitución,City Center,Spain,Malaga,"A bustling square in the heart of Málaga, surrounded by historic buildings and popular cafes.","36.7209197, -4.4218626",36.7209197,-4.4218626,119,4,0.03361344538,7
El Prat Airport,Airport,Spain,Barcelona,,"41.29834049999999, 2.0800095",41.2983405,2.0800095,118,1,0.008474576271,0
Aeropuerto de Barcelona-El Prat,Airport,Spain,Barcelona,The main international airport serving Barcelona and the second largest in Spain.,"41.29834049999999, 2.0800095",41.2983405,2.0800095,118,1,0.008474576271,0
Gare Centrale,Train Station,Canada,Montreal,"The primary train station in Montreal, serving both regional and national routes.","45.5001121, -73.5665224",45.5001121,-73.5665224,118,4,0.03389830508,1
Sheffield Station,Train Station,United Kingdom,Sheffield,,"53.37823419999999, -1.4624034",53.3782342,-1.4624034,118,18,0.1525423729,0
St. John's Co-Cathedral,Landmark,Malta,Valetta,A 16th-century Baroque cathedral known for its ornate interior and Caravaggio paintings.,"35.8975921, 14.5124951",35.8975921,14.5124951,117,12,0.1025641026,4
Centro de Arte Contemporáneo de Málaga,Museum,Spain,Malaga,"A contemporary art museum housed in a former wholesale market, showcasing works by Spanish and international artists.","36.71436690000001, -4.4255618",36.7143669,-4.4255618,116,9,0.0775862069,2
National Museum of Archaeology,Museum,Malta,Valetta,A museum showcasing artifacts from prehistoric times to the Phoenician period.,"35.897445, 14.51113",35.897445,14.51113,116,13,0.1120689655,4
National Museum of Fine Arts,Museum,Malta,Valetta,A museum showcasing Maltese art from the Renaissance to the present day.,"35.896395, 14.5114248",35.896395,14.5114248,116,13,0.1120689655,4
The War Rooms,Museum,Malta,Valetta,An underground complex that served as the headquarters of the British Armed Forces during World War II.,"35.8949343, 14.5126397",35.8949343,14.5126397,116,13,0.1120689655,3
Museu Picasso,Museum,Spain,Barcelona,"A museum dedicated to the famous Spanish artist Pablo Picasso, featuring many of his works.","41.3852706, 2.1809472",41.3852706,2.1809472,116,11,0.09482758621,10
Upper Barrakka Gardens,Landmark,Malta,Valetta,A public garden offering panoramic views of the Grand Harbor and the Three Cities.,"35.8951791, 14.5119437",35.8951791,14.5119437,116,13,0.1120689655,2
Bristol Old Vic,Theatre,United Kingdom,Bristol,,"51.4520487, -2.5943206",51.4520487,-2.5943206,115,17,0.147826087,6
Washington Dulles International Airport,Airport,United States,Washington D.C.,,"38.9072873, -77.0369274",38.9072873,-77.0369274,115,7,0.06086956522,1
National Gallery of Art,Museum,United States,Washington D.C.,"A national art museum located on the National Mall, featuring over 150,000 works of art from the Middle Ages to the present day.","38.9071923, -77.0368707",38.9071923,-77.0368707,115,7,0.06086956522,1
Nottingham Station,Train Station,United Kingdom,Nottingham,,"52.9470052, -1.1468168",52.9470052,-1.1468168,115,13,0.1130434783,1
The Wharf,City Center,United States,Washington D.C.,"A waterfront development in southwest Washington D.C., featuring restaurants, shops, and entertainment venues.","38.9071923, -77.0368707",38.9071923,-77.0368707,115,7,0.06086956522,1
Firenze Santa Maria Novella,Train Station,Italy,Florence,,"43.7753392, 11.2476522",43.7753392,11.2476522,114,5,0.04385964912,12
Rogers Centre,Stadium,Canada,Toronto,,"43.6422705, -79.3901667",43.6422705,-79.3901667,113,7,0.06194690265,4
Etihad Stadium,Stadium,United Kingdom,Manchester,"The home stadium of Manchester City F.C., one of the largest football clubs in the UK.","53.4831634, -2.2003736",53.4831634,-2.2003736,113,9,0.0796460177,0
Teatro Colón,Theatre,Argentina,Buenos Aires,,"-34.601152, -58.3833278",-34.601152,-58.3833278,112,4,0.03571428571,7
Bayfront Park (Fan Zone),,United States,Miami,,"25.7752589, -80.18618889999999",25.7752589,-80.1861889,111,1,0.009009009009,4
Teatro Gran Rex,Theatre,Argentina,Buenos Aires,,"-34.6033873, -58.3788666",-34.6033873,-58.3788666,109,2,0.01834862385,5
Coliseu do Porto,Theatre,Portugal,Porto,,"41.146818, -8.605492",41.146818,-8.605492,108,11,0.1018518519,18
Old City,Neighbourhood,United Kingdom,Bristol,,"51.453432, -2.5961128",51.453432,-2.5961128,107,15,0.1401869159,5
Bristol Hippodrome,Theatre,United Kingdom,Bristol,,"51.4531937, -2.5982625",51.4531937,-2.5982625,107,14,0.1308411215,6
Hyde Park,Landmark,Australia,Sydney,"The oldest public parkland in Australia, with beautiful gardens, monuments, and popular events and festivals.","-33.8715202, 151.2116243",-33.8715202,151.2116243,107,8,0.07476635514,4
Civic Theatre,Theatre,New Zealand,Auckland,,"-36.8509793, 174.7641847",-36.8509793,174.7641847,106,12,0.1132075472,3
Arc de Triomf,Landmark,Spain,Barcelona,A triumphal arch built as the main access gate for the 1888 Barcelona World Fair.,"41.3910524, 2.1806449",41.3910524,2.1806449,106,9,0.08490566038,4
The Three Cities,Landmark,Malta,Valetta,"A collective term for the fortified cities of Birgu, Senglea, and Cospicua, located across the Grand Harbor from Valletta.","35.8992375, 14.5140996",35.8992375,14.5140996,105,11,0.1047619048,4
Grandmaster's Palace,Landmark,Malta,Valetta,A 16th-century palace that served as the residence of the Grandmaster of the Knights of St. John.,"35.8989499, 14.513872",35.8989499,14.513872,105,11,0.1047619048,4
Quartier de la Madeleine,Neighbourhood,France,Paris,,"48.87058709999999, 2.3189432",48.8705871,2.3189432,105,22,0.2095238095,2
Aotea Centre,Theatre,New Zealand,Auckland,,"-36.8518494, 174.7624573",-36.8518494,174.7624573,105,11,0.1047619048,3
Marsamxett Harbour,Landmark,Malta,Valetta,"A natural harbor located between Valletta and Sliema, offering scenic views and boat tours.","35.8992375, 14.5140996",35.8992375,14.5140996,105,11,0.1047619048,4
Basilica of Our Lady of Mount Carmel,Landmark,Malta,Valetta,A Roman Catholic church known for its stunning Baroque facade and gilded interior.,"35.9002121, 14.5122814",35.9002121,14.5122814,105,11,0.1047619048,4
Valletta Waterfront Open-Air Theatre,Theatre,Malta,Valetta,"An open-air theatre located on the Valletta Waterfront, hosting concerts and cultural performances.","35.8992375, 14.5140996",35.8992375,14.5140996,105,11,0.1047619048,4
Malta Postal Museum,Museum,Malta,Valetta,"A museum dedicated to the history of the postal service in Malta, housed in a 16th-century building.","35.8986662, 14.5147012",35.8986662,14.5147012,105,11,0.1047619048,4
Berlin Hauptbahnhof,Train Station,Germany,Berlin,,"52.5250839, 13.369402",52.5250839,13.369402,105,2,0.01904761905,2
Teatro Real,Theatre,Spain,Madrid,"One of the most important theatres in Madrid, hosting a variety of cultural performances.","40.4181323, -3.7102972",40.4181323,-3.7102972,104,3,0.02884615385,12
Smithsonian National Air and Space Museum,Museum,United States,Washington D.C.,"A museum dedicated to the history of flight and space exploration, located on the National Mall.","38.88816010000001, -77.0198679",38.8881601,-77.0198679,104,3,0.02884615385,1
Ronald Reagan Washington National Airport,Airport,United States,Washington D.C.,,"38.8530281, -77.0427924",38.8530281,-77.0427924,104,1,0.009615384615,0
Mayflower Theatre,Theatre,United Kingdom,Southampton,,"50.9086137, -1.4101904",50.9086137,-1.4101904,103,7,0.06796116505,5
Wenceslas Square,,Czech Republic,Prague,,"50.0817831, 14.4271187",50.0817831,14.4271187,103,10,0.09708737864,9
Burggarten,City Center,Austria,Vienna,"A beautiful park and garden, home to the famous Mozart monument and offering a tranquil escape in the heart of the city.","48.2043382, 16.3658336",48.2043382,16.3658336,103,5,0.04854368932,4
LAX Airport,,United States,Los Angeles,,"33.942153, -118.4036052",33.942153,-118.4036052,102,7,0.06862745098,0
Los Angeles International Airport (LAX),Airport,United States,Los Angeles,,"33.942153, -118.4036052",33.942153,-118.4036052,102,7,0.06862745098,0
Los Angeles International Airport,Airport,United States,Los Angeles,"One of the busiest airports in the world, serving as the primary international airport for the city of Los Angeles.","33.942153, -118.4036052",33.942153,-118.4036052,102,7,0.06862745098,0
Madrid Atocha,Train Station,Spain,Madrid,,"40.4023449, -3.6881569",40.4023449,-3.6881569,101,9,0.08910891089,6
Atocha,Neighbourhood,Spain,Madrid,,"40.4023449, -3.6881569",40.4023449,-3.6881569,101,9,0.08910891089,6
Musée d'Orsay,Museum,France,Paris,"A renowned art museum in Paris, known for its collection of Impressionist and Post-Impressionist works.","48.8599614, 2.3265614",48.8599614,2.3265614,100,2,0.02,0
Gare du Palais,Train Station,Canada,Montreal,A historic train station in Montreal serving regional and national routes.,"45.5018869, -73.56739189999999",45.5018869,-73.5673919,100,4,0.04,1
Quartier de la Monnaie,Neighbourhood,France,Paris,,"48.8544122, 2.3407963",48.8544122,2.3407963,99,12,0.1212121212,2
Musée de l'Orangerie,Museum,France,Paris,"A small museum in Paris, known for its collection of Impressionist and Post-Impressionist works.","48.8637884, 2.3226724",48.8637884,2.3226724,99,12,0.1212121212,0
Mediterranean Conference Centre,Theatre,Malta,Valetta,A 16th-century building that now serves as a conference and exhibition center.,"35.899741, 14.518268",35.899741,14.518268,98,8,0.08163265306,3
Perth Railway Station,Train Station,Australia,Perth,,"-31.95110949999999, 115.8599614",-31.9511095,115.8599614,98,6,0.0612244898,8
Plaza de la Liberación Fan Festival,,Mexico,Guadalajara,,"20.6769553, -103.3459141",20.6769553,-103.3459141,98,3,0.0306122449,4
Plaza de la Villa,Landmark,Spain,Madrid,"A historic square in Madrid, known for its beautiful buildings and important role in the city's history.","40.4152002, -3.7105431",40.4152002,-3.7105431,98,7,0.07142857143,11
Regent Theatre,,Australia,Melbourne,,"-37.8158988, 144.9679107",-37.8158988,144.9679107,97,3,0.03092783505,2
Gare de Bercy Bus Station,Bus Station,France,Paris,A major bus station in Paris serving domestic and international routes.,"48.8355603, 2.3805273",48.8355603,2.3805273,97,8,0.0824742268,3
Arc de Triomphe,Landmark,France,Paris,"A famous monument in Paris, known for its triumphal arch design and historical significance.","48.8737917, 2.2950275",48.8737917,2.2950275,97,10,0.1030927835,5
Gare d'Austerlitz,Train Station,France,Paris,"One of the six major train stations in Paris, serving trains to central and southwestern France, as well as Spain.","48.8429462, 2.3649513",48.8429462,2.3649513,97,3,0.03092783505,0
Harrods,City Center,United Kingdom,London,"A world-famous luxury department store, known for its opulent interior and wide selection of high-end goods.","51.49940549999999, -0.1632344",51.4994055,-0.1632344,97,8,0.0824742268,1
Bercy Seine,Bus Station,France,Paris,"A major bus station in Paris, serving as a hub for national and international routes.","48.83539, 2.380565",48.83539,2.380565,96,8,0.08333333333,2
Dam Square,City Center,Netherlands,Amsterdam,"The primary city square in Amsterdam, known for its historic buildings and events.","52.3731006, 4.8924274",52.3731006,4.8924274,96,6,0.0625,16
Rossio Square,,Portugal,Lisbon,,"38.7138802, -9.139051",38.7138802,-9.139051,96,9,0.09375,25
Bercy Seine Megabus Station,Bus Station,France,Paris,"A bus station in Paris, serving as a hub for national and international routes.","48.83539, 2.380565",48.83539,2.380565,96,8,0.08333333333,2
Palazzo del Quirinale,Landmark,Italy,Rome,The official residence of the President of the Italian Republic and one of the most important palaces in Rome.,"41.9002445, 12.4864679",41.9002445,12.4864679,96,3,0.03125,6
Wiener Staatsoper,Theatre,Austria,Vienna,"One of the most prestigious opera houses in the world, known for its high-quality performances and stunning architecture.","48.2034306, 16.3692034",48.2034306,16.3692034,96,4,0.04166666667,3
Rossio Square,City Center,Portugal,Lisbon,"The main square in Lisbon, known for its beautiful fountains, lively atmosphere, and close proximity to other popular attractions.","38.7138802, -9.139051",38.7138802,-9.139051,96,9,0.09375,25
Vienna State Opera,Theatre,Austria,Schwechat,"One of the most prestigious opera houses in the world, showcasing world-renowned performances.","48.2034306, 16.3692034",48.2034306,16.3692034,96,4,0.04166666667,3
Vienna State Opera,Theatre,Austria,Vienna,"A prestigious opera house in Vienna, known for its world-class performances and stunning architecture.","48.2034306, 16.3692034",48.2034306,16.3692034,96,4,0.04166666667,3
Bercy Seine Bus Station,Bus Station,France,Paris,"A major bus station in Paris, serving as a hub for regional and national bus connections.","48.83539, 2.380565",48.83539,2.380565,96,8,0.08333333333,2
Champs-Élysées,City Center,France,Paris,"A major avenue in Paris, known for its luxury shops, restaurants, and landmarks.","48.8729602, 2.2978526",48.8729602,2.2978526,95,8,0.08421052632,6
Dublin Heuston,Train Station,Ireland,Dublin,,"53.3464596, -6.292984499999999",53.3464596,-6.2929845,95,13,0.1368421053,1
Denver Union Station,Train Station,United States,Denver,,"39.75390670000001, -105.0012385",39.7539067,-105.0012385,95,9,0.09473684211,1
Heuston Station,Neighbourhood,Ireland,Dublin,,"53.34632879999999, -6.2941303",53.3463288,-6.2941303,94,13,0.1382978723,1
Queen Victoria Market,Landmark,Australia,Melbourne,"A historic open-air market with a variety of stalls selling fresh produce, food, and souvenirs.","-37.8075798, 144.956785",-37.8075798,144.956785,93,4,0.04301075269,0
Leeds Grand Theatre,Theatre,United Kingdom,Leeds,,"53.8, -1.5411111",53.8,-1.5411111,93,15,0.1612903226,3
Teatro Nacional Dona Maria II,Theatre,Portugal,Lisbon,"One of the most important theatres in Lisbon, known for its diverse performances and cultural significance.","38.7148005, -9.139787499999999",38.7148005,-9.1397875,92,9,0.09782608696,23
The Liberties,Neighbourhood,Ireland,Dublin,,"53.3432456, -6.2815587",53.3432456,-6.2815587,92,15,0.1630434783,4
Dublin Airport,Airport,Ireland,Dublin,,"53.425632, -6.257375499999999",53.425632,-6.2573755,91,4,0.04395604396,0
Vatican City,Landmark,Italy,Rome,"An independent city-state located within Rome, known for being the center of the Catholic Church.","41.9021788, 12.4536007",41.9021788,12.4536007,91,5,0.05494505495,2
St. Peter’s Basilica,,Italy,Rome,,"41.9021667, 12.4539367",41.9021667,12.4539367,91,5,0.05494505495,2
Teatro Nacional São João,Theatre,Portugal,Porto,,"41.1446735, -8.607421900000002",41.1446735,-8.6074219,91,8,0.08791208791,13
Quartier des Champs‑Élysées,Neighbourhood,France,Paris,,"48.8662294, 2.3077957",48.8662294,2.3077957,90,6,0.06666666667,0
Hofburg Imperial Palace,Museum,Austria,Vienna,"A former imperial palace and now a museum complex, housing several museums including the Sisi Museum and the Imperial Apartments.","48.2056578, 16.3647803",48.2056578,16.3647803,89,4,0.04494382022,3
Carmo Convent,Landmark,Portugal,Lisbon,"A former Catholic convent and now a stunning archaeological museum, featuring a collection of artifacts and ruins from the 1755 Lisbon earthquake.","38.7120383, -9.140612899999999",38.7120383,-9.1406129,89,8,0.08988764045,25
Hofburg Palace,Tourist Attraction,Austria,Schwechat,"A grand palace in Vienna, serving as the official residence of the President of Austria.","48.2056578, 16.3647803",48.2056578,16.3647803,89,4,0.04494382022,3
Gare de Bercy,Train Station,France,Paris,"One of the six major train stations in Paris, serving as a hub for regional and national train connections.","48.8396947, 2.3811205",48.8396947,2.3811205,89,5,0.05617977528,1
Elevator of Santa Justa,Landmark,Portugal,Lisbon,"An iconic elevator connecting the lower streets of Baixa with the upper streets of Bairro Alto, offering stunning views of the city.","38.7121301, -9.139429699999999",38.7121301,-9.1394297,89,8,0.08988764045,20
Hofburg Imperial Palace,,Austria,Vienna,,"48.2056578, 16.3647803",48.2056578,16.3647803,89,4,0.04494382022,3
Hofburg Palace,Museum,Austria,Vienna,"A former imperial palace and now a museum complex, housing several museums including the Sisi Museum and the Imperial Apartments.","48.2056578, 16.3647803",48.2056578,16.3647803,89,4,0.04494382022,3
Vienna International Airport,Airport,Austria,Vienna,"The largest and busiest airport in Austria, serving as a major hub for international and domestic flights.","48.11794769999999, 16.5662578",48.1179477,16.5662578,87,0,0,0
Main Market Square,City Center,Poland,Krakow,"A large medieval square in the heart of Kraków, surrounded by historic buildings, restaurants, and souvenir shops.","50.0618971, 19.936756",50.0618971,19.936756,87,7,0.08045977011,13
Vienna International Airport,,Austria,Vienna,,"48.11794769999999, 16.5662578",48.1179477,16.5662578,87,0,0,0
Vienna International Airport,Airport,Austria,Schwechat,"The largest and busiest airport in Austria, serving the city of Schwechat and the capital city of Vienna.","48.11794769999999, 16.5662578",48.1179477,16.5662578,87,0,0,0
Lisbon Humberto Delgado Airport,,Portugal,Lisbon,,"38.7788454, -9.1319758",38.7788454,-9.1319758,86,1,0.01162790698,0
Sydney Airport,Airport,Australia,Sydney,The main airport serving Sydney and the busiest airport in Australia.,"-33.950033, 151.1816955",-33.950033,151.1816955,86,1,0.01162790698,0
Grand Central Terminal,,United States,New York,,"40.7533582, -73.9768041",40.7533582,-73.9768041,86,7,0.08139534884,1
St. Mary's Basilica,Landmark,Poland,Krakow,"A Gothic church located in the Main Market Square, famous for its ornate interior and hourly bugle call.","50.0616411, 19.9393903",50.0616411,19.9393903,86,8,0.09302325581,12
Lisbon Portela Airport,Airport,Portugal,Lisbon,The main international airport in Lisbon.,"38.7788454, -9.1319758",38.7788454,-9.1319758,86,1,0.01162790698,0
Nuffield Southampton Theatres,Theatre,United Kingdom,Southampton,,"50.9080579, -1.4043928",50.9080579,-1.4043928,84,5,0.05952380952,5
Porte Maillot,Bus Station,France,Paris,"A major bus station in Paris, serving international and national routes.","48.878666, 2.28358",48.878666,2.28358,84,2,0.02380952381,1
Grand Opera House,Theatre,United Kingdom,York,,"53.9572413, -1.0820201",53.9572413,-1.0820201,84,14,0.1666666667,8
Porte Maillot Bus Station,Bus Station,France,Paris,A major bus station in Paris serving regional and international routes.,"48.878666, 2.28358",48.878666,2.28358,84,2,0.02380952381,1
Greyhound / Coach Bus Terminals,,United States,Boston,,"42.34976, -71.05593999999999",42.34976,-71.05594,83,4,0.04819277108,1
Baixa,City Center,Portugal,Lisbon,"The downtown area of Lisbon, known for its bustling streets, lively atmosphere, and iconic squares.","38.7123643, -9.1383428",38.7123643,-9.1383428,83,6,0.07228915663,21
Santiago Bernabéu Stadium,Stadium,Spain,Madrid,"One of the most iconic and well-known stadiums in Madrid, home to Real Madrid football club.","40.4530196, -3.6883748",40.4530196,-3.6883748,82,5,0.06097560976,3
Valletta City Gate,City Center,Malta,Valetta,"The main entrance to the city of Valletta, featuring a modern design and views of the Grand Harbor.","35.8961681, 14.5091557",35.8961681,14.5091557,82,9,0.1097560976,2
Estadio Santiago Bernabéu,Stadium,Spain,Madrid,,"40.4530196, -3.6883748",40.4530196,-3.6883748,82,5,0.06097560976,3
Opéra Bastille,Theatre,France,Paris,"A modern opera house in Paris, hosting opera and ballet performances.","48.8525003, 2.370342200000001",48.8525003,2.3703422,80,3,0.0375,4
Plaça d'Espanya,City Center,Spain,Barcelona,"A large square and transport hub in Barcelona, featuring a fountain and a Venetian tower.","41.3747347, 2.148768",41.3747347,2.148768,79,3,0.03797468354,8
St. Paul's Cathedral,Landmark,Australia,Melbourne,A striking Anglican cathedral with a rich history and an impressive interior.,"-37.817029, 144.967687",-37.817029,144.967687,78,3,0.03846153846,2
Chiado,City Center,Portugal,Lisbon,"A charming district known for its traditional cafes, boutique shops, and street performers.","38.7105423, -9.1422039",38.7105423,-9.1422039,78,9,0.1153846154,17
Plaza de Francia,Landmark,Panama,Panama City,"A historic square in Panama City, honoring the French workers who helped build the Panama Canal.","8.9498202, -79.53204869999999",8.9498202,-79.5320487,78,7,0.08974358974,2
Olympia Theater,Theatre,United States,Miami,,"25.7741495, -80.19051689999999",25.7741495,-80.1905169,77,1,0.01298701299,5
Flinders Street Station,Train Station,Australia,Melbourne,"An iconic train station with a distinctive dome, serving regional and suburban trains.","-37.8182711, 144.9670618",-37.8182711,144.9670618,77,3,0.03896103896,2
Jagiellonian University,Landmark,Poland,Krakow,"One of the oldest universities in Europe, founded in 1364, with a historic campus and various faculties.","50.0620926, 19.9333211",50.0620926,19.9333211,76,7,0.09210526316,10
London Luton Airport,Airport,United Kingdom,Luton,,"51.875462, -0.372755",51.875462,-0.372755,76,8,0.1052631579,1
Bruxelles-Central,Train Station,Belgium,Brussels,,"50.845504, 4.3570964",50.845504,4.3570964,76,2,0.02631578947,5
Perth Busport,Bus Station,Australia,Perth,,"-31.9502581, 115.8568798",-31.9502581,115.8568798,76,6,0.07894736842,6
Montmartre,City Center,France,Paris,"A historic district in Paris, known for its artistic and bohemian atmosphere.","48.8867148, 2.3388895",48.8867148,2.3388895,76,9,0.1184210526,13
Luton Airport,Airport,United Kingdom,London,,"51.875462, -0.372755",51.875462,-0.372755,76,8,0.1052631579,1
The O2 Arena,Stadium,United Kingdom,London,,"51.503038, 0.0031543",51.503038,0.0031543,75,3,0.04,0
Capital One Arena,Stadium,United States,Washington D.C.,,"38.8981675, -77.02085679999999",38.8981675,-77.0208568,75,19,0.2533333333,2
Stokes Croft,Neighbourhood,United Kingdom,Bristol,,"51.4627951, -2.5899448",51.4627951,-2.5899448,75,9,0.12,0
Logan International Airport,Airport,United States,Boston,,"42.365602, -71.0096136",42.365602,-71.0096136,75,1,0.01333333333,0
BOS Airport (Logan),,United States,Boston,,"42.365602, -71.0096136",42.365602,-71.0096136,75,1,0.01333333333,0
Boston Opera House,Theatre,United States,Boston,,"42.3539873, -71.0623039",42.3539873,-71.0623039,75,4,0.05333333333,3
Praça dos Restauradores,City Center,Portugal,Lisbon,"A popular square lined with restaurants and cafes, known for its beautiful fountains and central location.","38.7157819, -9.1412387",38.7157819,-9.1412387,75,6,0.08,21
Madrid Chamartín Railway Station,Train Station,Spain,Madrid,"One of the main train stations in Madrid, serving high-speed and regional trains.","40.4718908, -3.6825565",40.4718908,-3.6825565,74,4,0.05405405405,5
Sacré-Cœur,Landmark,France,Paris,"A Roman Catholic church in Paris, known for its beautiful architecture and views of the city.","48.88670459999999, 2.3431043",48.8867046,2.3431043,74,9,0.1216216216,13
Quartier de Bercy,Neighbourhood,France,Paris,,"48.835455, 2.3856832",48.835455,2.3856832,74,6,0.08108108108,4
Sacré-Cœur Basilica,Landmark,France,Paris,"A stunning Roman Catholic church in Paris, the Sacré-Cœur Basilica is known for its beautiful architecture and panoramic views of the city.","48.88670459999999, 2.3431043",48.8867046,2.3431043,74,9,0.1216216216,13
Deansgate,Train Station,United Kingdom,Manchester,,"53.4782896, -2.2495394",53.4782896,-2.2495394,74,7,0.09459459459,5
Chicago Theatre,Theatre,United States,Chicago,,"41.8855132, -87.62758559999999",41.8855132,-87.6275856,73,1,0.01369863014,3
Glasgow School of Art,Landmark,Scotland,Glasgow,Considered one of the finest examples of Charles Rennie Mackintosh's architecture.,"55.866147, -4.2636932",55.866147,-4.2636932,73,8,0.1095890411,5
Glasgow School of Art,Landmark,United Kingdom,Glasgow,A famous art school with a distinctive building designed by Charles Rennie Mackintosh.,"55.866147, -4.2636932",55.866147,-4.2636932,73,8,0.1095890411,5
Ford's Theatre,Theatre,United States,Washington D.C.,,"38.8966765, -77.0255908",38.8966765,-77.0255908,73,14,0.1917808219,0
Glasgow School of Art,Landmark,United Kingdom,Glasgow,A famous art school with a distinctive building designed by Charles Rennie Mackintosh.,"55.866147, -4.2636932",55.866147,-4.2636932,73,8,0.1095890411,5
Exeter St Davids Station,Train Station,United Kingdom,Exeter,,"50.7293321, -3.5435894",50.7293321,-3.5435894,72,10,0.1388888889,1
Eureka Tower,Landmark,Australia,Melbourne,"The tallest building in Melbourne and the second tallest in Australia, offering panoramic views from its observation deck.","-37.8213341, 144.9646982",-37.8213341,144.9646982,72,3,0.04166666667,4
Planty Park,Landmark,Poland,Krakow,"A scenic park surrounding the Old Town of Kraków, known for its greenery, historic monuments, and walking paths.","50.0599245, 19.9414307",50.0599245,19.9414307,72,5,0.06944444444,12
Teatro de la Zarzuela,Theatre,Spain,Madrid,,"40.4171895, -3.6969903",40.4171895,-3.6969903,72,8,0.1111111111,9
Kunsthistorisches Museum,Museum,Austria,Vienna,"One of the largest and most important art museums in the world, housing an extensive collection of European art and antiquities.","48.2038016, 16.3617874",48.2038016,16.3617874,72,3,0.04166666667,2
Oriental Theatre,Theatre,United States,Chicago,,"41.8846639, -87.628712",41.8846639,-87.628712,72,1,0.01388888889,3
Kunsthistorisches Museum,Museum,Austria,Schwechat,"One of the most important art museums in the world, showcasing a vast collection of European masterpieces.","48.2038016, 16.3617874",48.2038016,16.3617874,72,3,0.04166666667,2
Camp Nou,Stadium,Spain,Barcelona,The largest football stadium in Europe and the home of FC Barcelona.,"41.380896, 2.1228198",41.380896,2.1228198,71,7,0.0985915493,7
San Diego International Airport,Airport,United States,San Diego,,"32.7328907, -117.1897122",32.7328907,-117.1897122,71,4,0.05633802817,0
Estació del Nord,Bus Station,Spain,Barcelona,"The main bus station in Barcelona, serving national and international routes.","41.394968, 2.183275",41.394968,2.183275,70,4,0.05714285714,4
Bell Centre,Stadium,Canada,Montreal,"A multi-purpose arena in Montreal, home to the NHL's Montreal Canadiens and a popular venue for concerts and other events.","45.4960667, -73.5693153",45.4960667,-73.5693153,70,3,0.04285714286,3
Radio City Music Hall,Theatre,United States,New York,,"40.75997599999999, -73.9799772",40.759976,-73.9799772,69,6,0.08695652174,4
La Monnaie/De Munt,Theatre,Belgium,Brussels,,"50.8497868, 4.3538472",50.8497868,4.3538472,69,2,0.02898550725,4
El Raval,Landmark,Spain,Barcelona,A neighbourhood known for its diverse immigrant population and vibrant cultural scene.,"41.3797129, 2.1681474",41.3797129,2.1681474,69,4,0.05797101449,6
Piazza Navona,City Center,Italy,Rome,"A public square in central Rome, known for its beautiful fountains and Baroque architecture.","41.8991328, 12.4732921",41.8991328,12.4732921,69,2,0.02898550725,12
Miami Central Station,Train Station,United States,Miami,,"25.7807228, -80.19606569999999",25.7807228,-80.1960657,69,0,0,0
MiamiCentral Station,,United States,Miami,,"25.7807228, -80.19606569999999",25.7807228,-80.1960657,69,0,0,0
Quartier des Invalides,Neighbourhood,France,Paris,,"48.8593608, 2.3138127",48.8593608,2.3138127,69,4,0.05797101449,1
Castelo de São Jorge,,Portugal,Lisbon,,"38.7139092, -9.1334762",38.7139092,-9.1334762,68,4,0.05882352941,26
São Jorge Castle,Landmark,Portugal,Lisbon,"A medieval castle with panoramic views of the city, this landmark is a popular tourist destination and historical site.","38.7139092, -9.1334762",38.7139092,-9.1334762,68,4,0.05882352941,26
Castelo de São Jorge,Landmark,Portugal,Lisbon,"A Moorish castle with panoramic views of the city, this landmark is a popular tourist destination and historical site.","38.7139092, -9.1334762",38.7139092,-9.1334762,68,4,0.05882352941,26
Cairns Performing Arts Centre,Theatre,Australia,Cairns,,"-16.9203202, 145.7717601",-16.9203202,145.7717601,68,3,0.04411764706,3
Campo de' Fiori,City Center,Italy,Rome,"A historic square in Rome, known for its lively market during the day and bustling nightlife at night.","41.8954097, 12.472202",41.8954097,12.472202,68,3,0.04411764706,12
Théâtre des Champs-Élysées,Theatre,France,Paris,"A renowned theatre in Paris, known for its Art Deco design and performances.","48.8656847, 2.3031867",48.8656847,2.3031867,67,6,0.08955223881,0
Plaza del Salvador,City Center,Spain,Sevilla,"A lively square in the heart of Seville, surrounded by historic buildings and popular restaurants.","37.3900436, -5.9932064",37.3900436,-5.9932064,67,1,0.01492537313,8
Wrigley Field,Stadium,United States,Chicago,,"41.9484384, -87.6553327",41.9484384,-87.6553327,67,9,0.1343283582,0
Tenerife South Airport,Airport,Spain,Canary Islands,"The second busiest airport in the Canary Islands, with connections to major cities in Europe and Africa.","28.0467575, -16.5725303",28.0467575,-16.5725303,66,0,0,0
Plaza de San Francisco,,Spain,Sevilla,,"37.3887203, -5.9941965",37.3887203,-5.9941965,66,1,0.01515151515,8
Federation Square,City Center,Australia,Melbourne,"The main gathering place in Melbourne with shops, restaurants, and cultural events.","-37.8179789, 144.9690576",-37.8179789,144.9690576,66,2,0.0303030303,1
Hyde Park,Landmark,United Kingdom,London,"One of London's largest and most famous parks, offering beautiful gardens, lakes, and historic landmarks.","51.5073638, -0.1641135",51.5073638,-0.1641135,66,2,0.0303030303,0
Tenerife South Airport,Airport,Spain,Tenerife,The main international airport serving the southern part of Tenerife.,"28.0467575, -16.5725303",28.0467575,-16.5725303,66,0,0,0
Francisco Sá Carneiro Airport,Airport,Portugal,Porto,,"41.2473992, -8.6806638",41.2473992,-8.6806638,65,2,0.03076923077,0
Calle Castillo,City Center,Spain,Tenerife,A bustling shopping street in the heart of Santa Cruz de Tenerife.,"28.4672322, -16.2520761",28.4672322,-16.2520761,65,1,0.01538461538,1
Manchester Airport,Airport,United Kingdom,Manchester,"The largest international airport in the city of Manchester, serving over 28 million passengers per year.","53.3553569, -2.277162",53.3553569,-2.277162,65,7,0.1076923077,0
Calle Castillo,City Center,Spain,Canary Islands,"A bustling street in Santa Cruz de Tenerife, lined with shops, restaurants, and historic buildings.","28.4672322, -16.2520761",28.4672322,-16.2520761,65,1,0.01538461538,1
Crucible Theatre,Theatre,United Kingdom,Sheffield,,"53.38098549999999, -1.4667937",53.3809855,-1.4667937,64,5,0.078125,7
Theatre Royal & Royal Concert Hall,Theatre,United Kingdom,Nottingham,,"52.955239, -1.151333",52.955239,-1.151333,64,12,0.1875,7
Cadillac Palace Theatre,Theatre,United States,Chicago,,"41.8842392, -87.6330581",41.8842392,-87.6330581,63,0,0,2
Quartier du Jardin des Plantes,Neighbourhood,France,Paris,,"48.8439621, 2.3595996",48.8439621,2.3595996,63,4,0.06349206349,1
Billy Bishop Toronto City Airport,Airport,Canada,Toronto,,"43.6289467, -79.3944199",43.6289467,-79.3944199,63,0,0,0
Museum Station,Train Station,Australia,Sydney,,"-33.8765641, 151.2093033",-33.8765641,151.2093033,62,4,0.06451612903,4
Kraków Philharmonic,Theatre,Poland,Krakow,"A concert hall, home to the Kraków Philharmonic Orchestra, hosting classical music concerts and other performances.","50.0589095, 19.9328588",50.0589095,19.9328588,62,8,0.1290322581,5
Coliseu dos Recreios,Theatre,Portugal,Lisbon,"One of the oldest and most iconic theatres in Lisbon, hosting a variety of cultural performances and events.","38.7167438, -9.140177699999999",38.7167438,-9.1401777,62,2,0.03225806452,25
Darling Harbour,Tourist Attraction,Australia,Sydney,"A scenic waterfront area with popular attractions such as SEA LIFE Sydney Aquarium, Wild Life Sydney Zoo, and Madame Tussauds Sydney.","-33.87488, 151.2009",-33.87488,151.2009,61,4,0.06557377049,1
John F. Kennedy Airport,Airport,United States,New York,,"40.6446124, -73.7797278",40.6446124,-73.7797278,61,0,0,0
Castilla,Neighbourhood,Spain,Madrid,,"40.473866, -3.6794196",40.473866,-3.6794196,61,3,0.04918032787,0
Palazzo Farnese,Landmark,Italy,Rome,"A Renaissance palace in Rome, now the French Embassy in Italy and home to important works of art.","41.8947597, 12.4707851",41.8947597,12.4707851,60,5,0.08333333333,7
Citi Field,Stadium,United States,New York,,"40.7570024, -73.84590840000001",40.7570024,-73.8459084,60,1,0.01666666667,0
Théâtre du Capitole,Theatre,France,Toulouse ,"A historic opera house in Toulouse, known for its stunning architecture and world-class performances. It is the home of the Orchestre National du Capitole de Toulouse and hosts a variety of operas, ballets, and concerts.","43.6041085, 1.444265",43.6041085,1.444265,60,5,0.08333333333,1
Rockefeller Center,,United States,New York,,"40.7587402, -73.9786736",40.7587402,-73.9786736,59,6,0.1016949153,3
Thyssen-Bornemisza Museum,Museum,Spain,Madrid,"A renowned art museum in Madrid, featuring a diverse collection of works from various periods.","40.4160406, -3.6949254",40.4160406,-3.6949254,58,8,0.1379310345,5
Alicante Airport,Airport,Spain,Alicante,The main airport serving the city of Alicante and the province of Valencia.,"38.284924, -0.5622132",38.284924,-0.5622132,57,0,0,0
Lumen Field,,United States,Seattle,,"47.5951518, -122.3316394",47.5951518,-122.3316394,57,3,0.05263157895,1
CenturyLink Field,Stadium,United States,Seattle,A multi-purpose stadium that serves as the home field for the Seattle Seahawks and Seattle Sounders FC.,"47.5951518, -122.3316394",47.5951518,-122.3316394,57,3,0.05263157895,1
Manchester Opera House,Theatre,United Kingdom,Manchester,"One of the largest theatres in Manchester, hosting a variety of productions from West End musicals to stand-up comedy.","53.4788414, -2.2513268",53.4788414,-2.2513268,57,4,0.0701754386,4
Capitole de Toulouse,City Center,France,Toulouse ,"The main square in Toulouse, surrounded by beautiful 18th-century buildings and home to the city hall. It is a popular spot for locals and tourists to gather and enjoy street performances.","43.60326610000001, 1.4422609",43.6032661,1.4422609,56,3,0.05357142857,1
Toulouse Bus Station,Bus Station,France,Toulouse ,"The main bus station in Toulouse, serving both national and international routes. It is located next to the train station for convenient transfers.","43.6048462, 1.442848",43.6048462,1.442848,56,4,0.07142857143,1
Stansted Airport,Airport,United Kingdom,London,,"51.8863747, 0.2413158",51.8863747,0.2413158,56,1,0.01785714286,0
Swiss National Museum,Museum,Switzerland,Zurich,"The largest museum in Switzerland, showcasing the country's cultural and historical heritage.","47.3791037, 8.540542799999999",47.3791037,8.5405428,56,2,0.03571428571,2
Calle Castaños,City Center,Spain,Alicante,"A popular street in the city centre of Alicante, lined with shops, restaurants, and bars.","38.3455856, -0.4855052",38.3455856,-0.4855052,56,0,0,9
Catedral de Málaga,,Spain,Malaga,,"36.7201678, -4.419310600000001",36.7201678,-4.4193106,56,1,0.01785714286,6
Málaga Cathedral,Landmark,Spain,Malaga,A 16th-century cathedral known for its Renaissance and Baroque architecture.,"36.7201678, -4.419310600000001",36.7201678,-4.4193106,56,1,0.01785714286,6
Mercado de Nuestra Señora de África,Landmark,Spain,Tenerife,"A bustling market in Santa Cruz de Tenerife, housed in a beautiful modernist building and offering a wide variety of local produce and goods.","28.4633506, -16.2518818",28.4633506,-16.2518818,56,1,0.01785714286,2
Teatro Principal de Alicante,Theatre,Spain,Alicante,"The main theatre in Alicante, hosting a variety of cultural performances and events.","38.346189, -0.4855445",38.346189,-0.4855445,56,0,0,9
Zurich Hauptbahnhof,Train Station,Switzerland,Zurich,The largest and busiest train station in Switzerland.,"47.3781458, 8.540251699999999",47.3781458,8.5402517,56,2,0.03571428571,2
Quartier des Quinze-Vingts,Neighbourhood,France,Paris,,"48.84866359999999, 2.372581",48.8486636,2.372581,55,3,0.05454545455,8
Museo del Baile Flamenco,Museum,Spain,Sevilla,"A museum dedicated to the art of flamenco, showcasing its history, costumes, and performances.","37.3889396, -5.9911628",37.3889396,-5.9911628,55,2,0.03636363636,8
Roma Trastevere Station & Bus Terminal,,Italy,Rome,,"41.8725904, 12.4660855",41.8725904,12.4660855,55,4,0.07272727273,3
Market-Frankford / Jefferson Station,,United States,Philadelphia,,"39.9525, -75.1580556",39.9525,-75.1580556,55,1,0.01818181818,4
O2 Arena,,Czech Republic,Prague,,"50.104819, 14.4936272",50.104819,14.4936272,54,5,0.09259259259,3
Santa Cruz de Tenerife Bus Station,Bus Station,Spain,Tenerife,"The largest and busiest bus station in Tenerife, connecting the city with other major destinations on the island.","28.4636296, -16.2518467",28.4636296,-16.2518467,54,1,0.01851851852,2
Museo de la Naturaleza y el Hombre,Museum,Spain,Tenerife,"A natural history museum in Santa Cruz de Tenerife, housing a diverse collection of artifacts and exhibits related to the history and culture of the Canary Islands.","28.463895, -16.249485",28.463895,-16.249485,54,1,0.01851851852,0
Plaza de la Constitución,,Spain,Malaga,,"19.432642, -99.1333215",19.432642,-99.1333215,54,5,0.09259259259,2
Santa Cruz de Tenerife City Centre,City Center,Spain,Tenerife,"The primary city square in Santa Cruz de Tenerife, known for its lively atmosphere and cultural events.","28.4636296, -16.2518467",28.4636296,-16.2518467,54,1,0.01851851852,2
Museum of Nature and Man,Museum,Spain,Tenerife,A museum showcasing the natural and cultural history of the Canary Islands.,"28.463895, -16.249485",28.463895,-16.249485,54,1,0.01851851852,0
Santa Cruz de Tenerife Tram,Train Station,Spain,Canary Islands,"The main tram station in Santa Cruz de Tenerife, connecting the city to other parts of the island.","28.4636296, -16.2518467",28.4636296,-16.2518467,54,1,0.01851851852,2
Teatro Cervantes,Theatre,Spain,Malaga,"A historic theatre in Malaga, known for its performances of opera, ballet, and theatre.","36.7247805, -4.418622099999999",36.7247805,-4.4186221,54,1,0.01851851852,8
Zurich Bus Station,Bus Station,Switzerland,Zurich,The main bus station in Zurich serving national and international routes.,"47.38097459999999, 8.5373094",47.3809746,8.5373094,54,2,0.03703703704,2
Santa Cruz de Tenerife Railway Station,Train Station,Spain,Tenerife,The main train station in the capital city of Tenerife.,"28.4636296, -16.2518467",28.4636296,-16.2518467,54,1,0.01851851852,2
Zócalo Fan Festival,,Mexico,Mexico City,,"19.432642, -99.1333215",19.432642,-99.1333215,54,5,0.09259259259,2
Museo de la Naturaleza y el Hombre,Museum,Spain,Canary Islands,"A natural history museum located in Santa Cruz de Tenerife, showcasing the biodiversity and rich culture of the Canary Islands.","28.463895, -16.249485",28.463895,-16.249485,54,1,0.01851851852,0
Jardin du Luxembourg,Landmark,France,Paris,"A beautiful park in Paris, known for its gardens and statues.","48.8466144, 2.3363309",48.8466144,2.3363309,53,5,0.09433962264,2
Gare Montparnasse,Train Station,France,Paris,"One of the six major train stations in Paris, serving as a hub for regional and high-speed trains.","48.8418065, 2.3213266",48.8418065,2.3213266,53,1,0.01886792453,5
Alfama,City Center,Portugal,Lisbon,"The oldest district in Lisbon, known for its narrow streets, traditional architecture, and lively atmosphere.","38.7124976, -9.1303235",38.7124976,-9.1303235,53,4,0.07547169811,17
Adolfo Suárez Madrid-Barajas Airport,Airport,Spain,Madrid,The main international airport serving Madrid and one of the busiest airports in Europe.,"40.4895147, -3.5642764",40.4895147,-3.5642764,52,0,0,0
South Bank Parklands,Tourist Attraction,Australia,Brisbane,"A popular recreational destination in Brisbane, featuring a man-made beach, gardens, and cultural events.","-27.4753665, 153.0208068",-27.4753665,153.0208068,52,7,0.1346153846,1
Anaheim Regional Transportation Intermodal Center (ARTIC),Train Station,United States,Los Angeles,,"34.0549076, -118.242643",34.0549076,-118.242643,52,1,0.01923076923,0
La Giralda,,Spain,Sevilla,,"37.3861784, -5.992613700000001",37.3861784,-5.9926137,52,1,0.01923076923,8
Seville Cathedral,Landmark,Spain,Sevilla,"The largest Gothic cathedral in the world, housing the tomb of Christopher Columbus.","37.3858247, -5.9931068",37.3858247,-5.9931068,52,1,0.01923076923,8
Catedral de Sevilla,,Spain,Sevilla,,"37.3858247, -5.9931068",37.3858247,-5.9931068,52,1,0.01923076923,8
Metrolink Anaheim,,United States,Los Angeles,,"34.0549076, -118.242643",34.0549076,-118.242643,52,1,0.01923076923,0
Archivo de Indias,Museum,Spain,Sevilla,"A museum showcasing Spain's history in the New World, located in a beautiful building in the historic center of Seville.","37.384628, -5.993258099999999",37.384628,-5.9932581,52,1,0.01923076923,6
Ahmanson Theatre,Theatre,United States,Los Angeles,,"34.0549076, -118.242643",34.0549076,-118.242643,52,1,0.01923076923,0
Adolfo Suárez Madrid–Barajas Airport,Airport,Spain,Madrid,The main international airport serving Madrid and the busiest airport in Spain.,"40.4895147, -3.5642764",40.4895147,-3.5642764,52,0,0,0
Carfax Tower,Landmark,United Kingdom,Oxford,"A 12th-century tower that is one of the oldest buildings in Oxford, offering panoramic views of the city.","51.7519168, -1.2580782",51.7519168,-1.2580782,52,6,0.1153846154,8
Estadio Ciudad de México,,Mexico,Mexico City,,"19.4326077, -99.133208",19.4326077,-99.133208,52,5,0.09615384615,0
Orly Airport,Airport,France,Paris,"The second largest international airport in Paris, located south of the city.","48.7299182, 2.3732304",48.7299182,2.3732304,51,0,0,0
Salzburg Hauptbahnhof,Train Station,Austria,Salzburg,,"47.8130272, 13.0450386",47.8130272,13.0450386,51,1,0.01960784314,2
Barrio de Santa Cruz,City Center,Spain,Sevilla,"A charming neighborhood in the historic center of Seville, known for its narrow streets and traditional architecture.","37.3842288, -5.9903422",37.3842288,-5.9903422,51,3,0.05882352941,9
Plaza de Armas Bus Station,Bus Station,Spain,Sevilla,"The main bus station in Seville, operating national and international routes.","37.3917064, -6.003286699999999",37.3917064,-6.0032867,51,1,0.01960784314,5
New Town,Neighbourhood,Czech Republic,Prague,,"50.0758425, 14.419064",50.0758425,14.419064,51,8,0.1568627451,2
Gare do Oriente,Train Station,Portugal,Lisbon,"One of the main train stations in Lisbon, serving high-speed trains, regional trains, and the metro system.","38.7678423, -9.0993449",38.7678423,-9.0993449,50,0,0,0
MEO Arena,,Portugal,Lisbon,,"38.7685312, -9.0940297",38.7685312,-9.0940297,50,0,0,0
Bairro Alto,City Center,Portugal,Lisbon,"A popular neighborhood known for its vibrant nightlife, traditional fado music, and charming atmosphere.","38.7128331, -9.1450582",38.7128331,-9.1450582,50,4,0.08,17
Picasso Museum,Museum,Spain,Malaga,"A museum dedicated to the works of Pablo Picasso, one of the city's most famous residents.","36.7217363, -4.4184291",36.7217363,-4.4184291,50,0,0,7
Crown Melbourne,Tourist Attraction,Australia,Melbourne,"A large entertainment complex with a casino, hotels, restaurants, and shopping options.","-37.8242257, 144.9575337",-37.8242257,144.9575337,50,6,0.12,3
Gare do Oriente (Estação do Oriente),,Portugal,Lisbon,,"38.767851, -9.0995005",38.767851,-9.0995005,50,0,0,0
Picasso Museum Málaga,Museum,Spain,Malaga,"A museum dedicated to the works of Pablo Picasso, who was born in Malaga.","36.7217363, -4.4184291",36.7217363,-4.4184291,50,0,0,7
Parque das Nações,City Center,Portugal,Lisbon,"A modern district in Lisbon, built for the 1998 World Expo, featuring attractions such as the Vasco da Gama Tower and Lisbon Oceanarium.","38.7686316, -9.095858",38.7686316,-9.095858,50,0,0,0
Pavilhao Atlantico,Stadium,Portugal,Lisbon,"A multi-purpose arena in Lisbon, hosting concerts, sporting events, and exhibitions.","38.7685312, -9.0940297",38.7685312,-9.0940297,50,0,0,0
Teatro dell'Opera di Roma,Theatre,Italy,Rome,"The main opera house in Rome, known for its impressive performances and architecture.","41.9006389, 12.4956583",41.9006389,12.4956583,50,12,0.24,14
Birmingham Repertory Theatre,Theatre,United Kingdom,Birmingham,,"52.4793488, -1.9092765",52.4793488,-1.9092765,50,4,0.08,3
Kalverstraat,Landmark,Netherlands,Amsterdam,"A major shopping street in Amsterdam, known for its many shops, cafés, and restaurants.","52.3700767, 4.8913845",52.3700767,4.8913845,50,3,0.06,7
New Theatre Oxford,Theatre,United Kingdom,Oxford,,"51.7539714, -1.2598971",51.7539714,-1.2598971,50,6,0.12,8
Juliusz Słowacki Theatre,Theatre,Poland,Krakow,"A historic theatre, one of the oldest in Poland, known for its opera and ballet performances.","50.0639313, 19.9428604",50.0639313,19.9428604,49,2,0.04081632653,11
Oxford Covered Market,City Center,United Kingdom,Oxford,"A historic indoor market selling a variety of goods, from fresh produce and gourmet foods to clothing and souvenirs.","51.752769, -1.2568029",51.752769,-1.2568029,49,6,0.1224489796,8
Musée Saint-Raymond,Museum,France,Toulouse ,"An archaeological museum showcasing the history of Toulouse from ancient times to the Middle Ages. It features a collection of over 2,000 artifacts, including mosaics, sculptures, and everyday objects.","43.60783259999999, 1.4410633",43.6078326,1.4410633,49,4,0.08163265306,0
Basilica of St. Sernin,Landmark,France,Toulouse ,"A Romanesque church in Toulouse, known for its striking architecture and historical significance. It is one of the largest remaining Romanesque churches in Europe and a UNESCO World Heritage Site.","43.6083156, 1.4418039",43.6083156,1.4418039,49,4,0.08163265306,0
Spanish Steps,Landmark,Italy,Rome,"A famous set of steps in Rome, known for its beautiful design and scenic views of the city.","41.90599, 12.482775",41.90599,12.482775,49,3,0.0612244898,5
Quartier de la Porte-Saint-Martin,Neighbourhood,France,Paris,,"48.8722485, 2.36125",48.8722485,2.36125,49,4,0.08163265306,16
Nottingham Playhouse,Theatre,United Kingdom,Nottingham,,"52.953882, -1.156135",52.953882,-1.156135,49,10,0.2040816327,5
Frankfurt Hauptbahnhof,Train Station,Germany,Frankfurt,,"50.1071439, 8.6637837",50.1071439,8.6637837,49,0,0,0
Anfield,Stadium,United Kingdom,Liverpool,,"53.4327564, -2.954592",53.4327564,-2.954592,48,0,0,0
Jerónimos,Neighbourhood,Spain,Madrid,,"40.415072, -3.6932785",40.415072,-3.6932785,48,7,0.1458333333,2
York Theatre Royal,Theatre,United Kingdom,York,,"53.9618741, -1.0853183",53.9618741,-1.0853183,48,11,0.2291666667,5
Piazza di Spagna,City Center,Italy,Rome,"A famous city square in Rome, known for its iconic Spanish Steps and sweeping views of the city.","41.9056798, 12.4822062",41.9056798,12.4822062,48,3,0.0625,6
Roman Forum,Landmark,Italy,Rome,"A historic site in Rome, known for its ancient ruins and important role in the city's history.","41.8920906, 12.4864378",41.8920906,12.4864378,47,2,0.04255319149,3
Wien Mitte - Landstraße,,Austria,Vienna,,"48.2061449, 16.3852368",48.2061449,16.3852368,47,0,0,3
Oxford Castle,Landmark,United Kingdom,Oxford,"A medieval castle that has been converted into a visitor attraction, offering tours and events.","51.7516353, -1.2626461",51.7516353,-1.2626461,47,7,0.1489361702,9
Plaza de Cibeles,Landmark,Spain,Madrid,"A famous square in Madrid, featuring a stunning fountain and iconic buildings.","40.4194255, -3.6933646",40.4194255,-3.6933646,47,5,0.1063829787,4
Gloucester Green Bus Station,Bus Station,United Kingdom,Oxford,"The main bus station in Oxford, serving both national and international routes.","51.75403499999999, -1.2624187",51.754035,-1.2624187,46,7,0.152173913,9
Budapest Keleti,Train Station,Hungary,Budapest,,"47.5004423, 19.0839882",47.5004423,19.0839882,46,0,0,1
Budapest Keleti Railway Station,Train Station,Hungary,Budapest,"The largest and busiest train station in Budapest, serving high-speed and regional trains.","47.5004423, 19.0839882",47.5004423,19.0839882,46,0,0,1
Lisbon Cathedral,Landmark,Portugal,Lisbon,"The oldest church in Lisbon, known for its Gothic architecture and religious significance.","38.7098339, -9.1329535",38.7098339,-9.1329535,46,3,0.0652173913,7
Symphony Hall,Theatre,United Kingdom,Birmingham,,"52.4785639, -1.9101092",52.4785639,-1.9101092,46,3,0.0652173913,1
Portsmouth Harbour Station,Train Station,United Kingdom,Portsmouth,,"50.7971719, -1.1077784",50.7971719,-1.1077784,46,3,0.0652173913,1
Kraków Barbican,Landmark,Poland,Krakow,"A fortified outpost dating back to the 15th century, a remnant of the city's medieval fortifications.","50.0654718, 19.9416613",50.0654718,19.9416613,45,1,0.02222222222,12
Birmingham Airport,Airport,United Kingdom,Birmingham,,"52.4523739, -1.7435082",52.4523739,-1.7435082,45,7,0.1555555556,0
Estació de França,Train Station,Spain,Barcelona,,"41.384037, 2.186491",41.384037,2.186491,45,4,0.08888888889,6
Arena Garibaldi,Stadium,Italy,Pisa,,"43.7252957, 10.4002021",43.7252957,10.4002021,44,1,0.02272727273,0
Oxford Playhouse,Theatre,United Kingdom,Oxford,,"51.754855, -1.2608496",51.754855,-1.2608496,44,6,0.1363636364,8
Union Station,Train Station,United States,Chicago,,"41.8786738, -87.6403334",41.8786738,-87.6403334,44,0,0,0
Venice Marco Polo Airport,Airport,Italy,Venice,,"45.5046844, 12.3466295",45.5046844,12.3466295,44,0,0,0
Naschmarkt,Landmark,Austria,Schwechat,"A bustling market in Vienna, offering a variety of fresh produce, local delicacies, and international cuisine.","48.1986178, 16.3636494",48.1986178,16.3636494,44,2,0.04545454545,2
Naschmarkt,City Center,Austria,Vienna,"The largest and most popular market in Vienna, offering a wide range of fresh produce, as well as restaurants, cafes, and international food stalls.","48.1986178, 16.3636494",48.1986178,16.3636494,44,2,0.04545454545,2
Malaga Roman Theatre,Landmark,Spain,Malaga,A well-preserved ancient Roman theatre located in the city center.,"36.7211729, -4.416823",36.7211729,-4.416823,44,0,0,6
Old Trafford,Stadium,United Kingdom,Manchester,"One of the most iconic football stadiums in the world, home to Manchester United F.C.","53.462094, -2.2766419",53.462094,-2.2766419,44,4,0.09090909091,0
Powerhouse Museum,Museum,Australia,Sydney,"A science and technology museum located in Sydney, with interactive exhibits and a large collection of objects.","-33.878518, 151.1995418",-33.878518,151.1995418,44,1,0.02272727273,1
Pioneer Square,City Center,United States,Seattle,"The historic heart of Seattle, featuring a mix of art galleries, restaurants, and unique shops.","47.6017382, -122.3320425",47.6017382,-122.3320425,44,2,0.04545454545,4
Puerta de Alcalá,Landmark,Spain,Madrid,"A triumphal arch and one of the most famous symbols of Madrid, located in the Retiro Park.","40.419992, -3.688737",40.419992,-3.688737,44,3,0.06818181818,1
Birmingham Snow Hill,Train Station,United Kingdom,Birmingham,,"52.4828589, -1.8984066",52.4828589,-1.8984066,44,7,0.1590909091,7
O'Hare International Airport,Airport,United States,Chicago,,"41.9802588, -87.9089858",41.9802588,-87.9089858,44,0,0,0
Aberdeen Station,Train Station,United Kingdom,Aberdeen,,"57.1436377, -2.0987651",57.1436377,-2.0987651,44,4,0.09090909091,5
Calle de Alcalá,City Center,Spain,Madrid,"One of the longest and most important streets in Madrid, connecting the city center to its outskirts.","40.4202097, -3.6878564",40.4202097,-3.6878564,44,3,0.06818181818,1
University Street Station,,United States,Seattle,,"47.6078238, -122.3356262",47.6078238,-122.3356262,43,2,0.04651162791,1
Erdberg Bus Station,Bus Station,Austria,Vienna,"The largest and busiest bus station in Vienna, serving as a major hub for national and international bus routes.","48.1907546, 16.4142212",48.1907546,16.4142212,43,5,0.1162790698,3
Belfast Central Station,Train Station,United Kingdom,Belfast,,"54.59524740000001, -5.9172408",54.5952474,-5.9172408,43,3,0.06976744186,0
George Best Belfast City Airport,Airport,United Kingdom,Belfast,,"54.6176103, -5.8718378",54.6176103,-5.8718378,43,1,0.02325581395,0
City Botanic Gardens,Tourist Attraction,Australia,Brisbane,"A historic botanical garden in Brisbane, featuring a variety of plant species and a riverfront location.","-27.4751331, 153.0299963",-27.4751331,153.0299963,43,6,0.1395348837,4
Amsterdam Sloterdijk Station,Train Station,Netherlands,Amsterdam,"A major train station in Amsterdam, serving as a hub for regional trains.","52.3890302, 4.838297499999999",52.3890302,4.8382975,42,0,0,0
Tokyo Station,Train Station,Japan,Tokyo,"The busiest train station in Tokyo and one of the largest in Japan, serving both regional and high-speed trains.","35.6812996, 139.7670658",35.6812996,139.7670658,42,1,0.02380952381,0
Moulin Rouge,Theatre,France,Paris,"A cabaret in Paris, known for its traditional French can-can dance and hosting a variety of shows and performances.","48.8841232, 2.3322519",48.8841232,2.3322519,42,4,0.09523809524,4
Seaport Village,Tourist Attraction,United States,San Diego,A waterfront shopping and dining complex with picturesque views of the San Diego Bay and Coronado Bridge.,"32.7090645, -117.1709366",32.7090645,-117.1709366,42,3,0.07142857143,1
Masaryk Station,,Czech Republic,Prague,,"50.087982, 14.4326526",50.087982,14.4326526,42,4,0.09523809524,1
Brisbane Botanic Gardens,Tourist Attraction,Australia,Brisbane,"A large botanical garden in Brisbane, featuring a variety of plant species and walking trails.","-27.4741832, 153.0307588",-27.4741832,153.0307588,41,6,0.1463414634,5
Plaza de la Merced,City Center,Spain,Malaga,"A lively square in the heart of the city, surrounded by cafes and restaurants.","36.723619, -4.4172399",36.723619,-4.4172399,41,0,0,8
Charles Bridge,,Czech Republic,Prague,,"50.0866392, 14.4101723",50.0866392,14.4101723,41,9,0.2195121951,6
Parc Güell,Landmark,Spain,Barcelona,A public park with gardens and architectural elements designed by Antoni Gaudí.,"41.4144948, 2.1526945",41.4144948,2.1526945,41,1,0.0243902439,0
Safeco Field,Stadium,United States,Seattle,A baseball stadium that serves as the home field for the Seattle Mariners.,"47.591472, -122.3325833",47.591472,-122.3325833,40,2,0.05,0
T-Mobile Park,Stadium,Canada,Seattle,,"47.591472, -122.3325832",47.591472,-122.3325832,40,2,0.05,0
Quartier Saint-Georges,Neighbourhood,France,Paris,,"48.88036049999999, 2.333799",48.8803605,2.333799,39,4,0.1025641026,3
Peretola Airport (Florence Airport),Airport,Italy,Florence,,"43.8094619, 11.2027587",43.8094619,11.2027587,39,1,0.02564102564,0
Quartier de la Folie‑Méricourt,Neighbourhood,France,Paris,,"48.8669914, 2.3720624",48.8669914,2.3720624,39,3,0.07692307692,8
The Malta Experience,Museum,Malta,Valetta,A multimedia show that provides an overview of Malta's history and culture.,"35.8998054, 14.5187183",35.8998054,14.5187183,39,4,0.1025641026,2
Ashmolean Museum,Museum,United Kingdom,Oxford,"The University of Oxford's museum of art and archaeology, with a vast collection of artifacts from around the world.","51.75542799999999, -1.2600725",51.755428,-1.2600725,39,6,0.1538461538,7
